[{"model": "main.location", "pk": 1, "fields": {"address": "Звезда смерти", "description": "боевая космическая станция — астросооружение из вселенной «Звёздных войн». Оснащена сверхмощным энергетическим лазерным оружием чрезвычайно разрушительной силы, способным уничтожать целые планеты .Ткаже она вооружена шаурмечной.", "picture": "locations/Death_star_2.jpg", "name": "Звезда", "сontacts": "+7 18498464984", "city": "Космос", "opening_hours": "Круглосуточно 24/7"}}, {"model": "main.location", "pk": 2, "fields": {"address": "Болото шрека", "description": "Болото содержит небольшие и большие пруды с грязной водой, а также гейзеры, которые высыпают грязь ,и шаурмечную. В болоте находятся жилые кварталы Шрека, которые состоят из пристройки и дома Шрека. Болото также является домом для различных видов видов, включая болотный слиз, который Шрек использует для своей зубной пасты.", "picture": "locations/1708667762_flomaster-top-p-boloto-shreka-pinterest-risunok-2.jpg", "name": "Болото", "сontacts": "+7 595 484 1619", "city": "Лондон", "opening_hours": "Круглосуточно 24/7"}}, {"model": "main.location", "pk": 3, "fields": {"address": "Дворец Путина", "description": "Это дворцово-парковый ансамбль на берегу Чёрного моря возле села Прасковеевка в 20 км от города Геленджика. По утверждениям и документам предпринимателей, связанных со строительством резиденции, а также согласно расследованиям ряда журналистов, активистов и оппозиционных политиков, была построена для Владимира Путина.", "picture": "locations/Putins_Palace.jpg", "name": "Дворец", "сontacts": "+7 495 697-03-49", "city": "Свестополь", "opening_hours": "Круглосуточно 24/7"}}, {"model": "main.location", "pk": 4, "fields": {"address": "Ленина 5", "description": "Это самая простая улица где можно заказать нашу шаурму.", "picture": "locations/social_credit_-.png", "name": "Ленин", "сontacts": "+7 65564", "city": "Ленинград", "opening_hours": "Круглосуточно 24/7"}}, {"model": "main.location", "pk": 5, "fields": {"address": "Сталина 8", "description": "Это самая простая улица где можно заказать нашу шаурму.", "picture": "", "name": "", "сontacts": "", "city": "", "opening_hours": ""}}, {"model": "main.location", "pk": 6, "fields": {"address": "Пушкина 22", "description": "Это самая простая улица где можно заказать нашу шаурму.", "picture": "", "name": "", "сontacts": "", "city": "", "opening_hours": ""}}]