[{"model": "geodata.geonode", "pk": 1, "fields": {"country": 70, "node_type": 75, "parent": null, "level": 1, "name_ru": "Южные нации, национальности и народы", "name_en": "Southern Nations, Nationalities, and Peoples", "name_native": "ደቡብ ብሔር ብሔረሰቦችና ሕዝቦች", "latitude": 6.5156911, "longitude": 36.954107, "timezone": 3, "population": null, "iso_code": "ET-SN", "wiki_data_id": "Q203193", "created_at": "2019-10-06T08:48:35Z", "updated_at": "2025-10-11T06:25:10Z"}}, {"model": "geodata.geonode", "pk": 2, "fields": {"country": 70, "node_type": 75, "parent": null, "level": 1, "name_ru": "сомалийский", "name_en": "Somali", "name_native": "ሶማሌ", "latitude": 7.2629844, "longitude": 43.5360531, "timezone": 3, "population": null, "iso_code": "ET-SO", "wiki_data_id": "Q202800", "created_at": "2019-10-06T08:48:35Z", "updated_at": "2025-10-11T06:25:11Z"}}, {"model": "geodata.geonode", "pk": 3, "fields": {"country": 70, "node_type": 75, "parent": null, "level": 1, "name_ru": "Амхара", "name_en": "Amhara", "name_native": "አማራ", "latitude": 11.5, "longitude": 38.5, "timezone": 3, "population": null, "iso_code": "ET-AM", "wiki_data_id": "Q203009", "created_at": "2019-10-06T08:48:35Z", "updated_at": "2025-10-11T06:25:11Z"}}, {"model": "geodata.geonode", "pk": 4, "fields": {"country": 70, "node_type": 75, "parent": null, "level": null, "name_ru": "Тыграй", "name_en": "Tigray", "name_native": "ክልል ትግራይ", "latitude": 13.881273, "longitude": 39.127495, "timezone": 3, "population": 5936000, "iso_code": "ET-TI", "wiki_data_id": "Q200127", "created_at": "2019-10-06T08:48:35Z", "updated_at": "2025-11-08T23:04:34Z"}}, {"model": "geodata.geonode", "pk": 5, "fields": {"country": 70, "node_type": 75, "parent": null, "level": null, "name_ru": "Оромия", "name_en": "Oromia", "name_native": "ኦሮሚያ", "latitude": 7.6721644, "longitude": 40.0299727, "timezone": 3, "population": 40884000, "iso_code": "ET-OR", "wiki_data_id": "Q202107", "created_at": "2019-10-06T08:48:35Z", "updated_at": "2025-11-08T23:04:35Z"}}, {"model": "geodata.geonode", "pk": 6, "fields": {"country": 70, "node_type": 75, "parent": null, "level": null, "name_ru": "Афар", "name_en": "Afar", "name_native": "አፋር", "latitude": 11.7108206, "longitude": 41.0330866, "timezone": 3, "population": null, "iso_code": "ET-AF", "wiki_data_id": "Q193494", "created_at": "2019-10-06T08:48:35Z", "updated_at": "2025-10-11T05:58:33Z"}}, {"model": "geodata.geonode", "pk": 7, "fields": {"country": 70, "node_type": 75, "parent": null, "level": null, "name_ru": "Харари", "name_en": "Harari", "name_native": "ሐረሪ", "latitude": 9.2905517, "longitude": 42.1885672, "timezone": 3, "population": null, "iso_code": "ET-HA", "wiki_data_id": "Q1033855", "created_at": "2019-10-06T08:48:35Z", "updated_at": "2025-10-11T05:58:33Z"}}, {"model": "geodata.geonode", "pk": 8, "fields": {"country": 70, "node_type": 2, "parent": null, "level": null, "name_ru": "Дире Дава", "name_en": "Dire Dawa", "name_native": "አዝናኝ", "latitude": 9.591323, "longitude": 41.8566341, "timezone": 3, "population": null, "iso_code": "ET-DD", "wiki_data_id": "Q193486", "created_at": "2019-10-06T08:48:35Z", "updated_at": "2025-10-11T05:58:33Z"}}, {"model": "geodata.geonode", "pk": 9, "fields": {"country": 70, "node_type": 75, "parent": null, "level": null, "name_ru": "Бенишангул-Гумуз", "name_en": "Benishangul-Gumuz", "name_native": "ቤኒሻል-ጉሙዝ", "latitude": 10.3778251, "longitude": 35.5084442, "timezone": 3, "population": 1127001, "iso_code": "ET-BE", "wiki_data_id": "Q207635", "created_at": "2019-10-06T08:48:35Z", "updated_at": "2025-11-08T23:04:45Z"}}, {"model": "geodata.geonode", "pk": 10, "fields": {"country": 70, "node_type": 75, "parent": null, "level": null, "name_ru": "Гамбела", "name_en": "Gambela", "name_native": "ጋምቤላ", "latitude": 7.8102647, "longitude": 34.1822172, "timezone": 3, "population": null, "iso_code": "ET-GA", "wiki_data_id": "Q207638", "created_at": "2019-10-06T08:48:35Z", "updated_at": "2025-10-11T05:58:33Z"}}, {"model": "geodata.geonode", "pk": 11, "fields": {"country": 70, "node_type": 2, "parent": null, "level": null, "name_ru": "Аддис-Абеба", "name_en": "Addis Ababa", "name_native": "አዲስ አበባ", "latitude": 9.0, "longitude": 38.75, "timezone": 3, "population": null, "iso_code": "ET-AA", "wiki_data_id": "Q3624", "created_at": "2019-10-06T08:48:35Z", "updated_at": "2025-10-11T07:38:36Z"}}, {"model": "geodata.geonode", "pk": 12, "fields": {"country": 145, "node_type": 63, "parent": null, "level": null, "name_ru": "Петница", "name_en": "Petnjica", "name_native": "Петњица", "latitude": 42.925657, "longitude": 19.9829219, "timezone": 466, "population": null, "iso_code": "ME-23", "wiki_data_id": "Q15630696", "created_at": "2019-10-06T08:48:35Z", "updated_at": "2025-10-11T07:38:36Z"}}, {"model": "geodata.geonode", "pk": 13, "fields": {"country": 145, "node_type": 63, "parent": null, "level": null, "name_ru": "Бар", "name_en": "Bar", "name_native": "Бара", "latitude": 42.0979745, "longitude": 19.0954528, "timezone": 466, "population": null, "iso_code": "ME-02", "wiki_data_id": "Q2604068", "created_at": "2019-10-06T08:48:35Z", "updated_at": "2025-10-11T05:57:10Z"}}, {"model": "geodata.geonode", "pk": 14, "fields": {"country": 145, "node_type": 63, "parent": null, "level": null, "name_ru": "Даниловград", "name_en": "Danilovgrad", "name_native": "Даниловград", "latitude": 42.5524049, "longitude": 19.1052289, "timezone": 466, "population": null, "iso_code": "ME-07", "wiki_data_id": "Q3741507", "created_at": "2019-10-06T08:48:35Z", "updated_at": "2025-10-11T07:38:36Z"}}, {"model": "geodata.geonode", "pk": 15, "fields": {"country": 145, "node_type": 63, "parent": null, "level": null, "name_ru": "Рожае", "name_en": "Rožaje", "name_native": "Рожаје", "latitude": 42.8408389, "longitude": 20.1670628, "timezone": 466, "population": null, "iso_code": "ME-17", "wiki_data_id": "Q3296677", "created_at": "2019-10-06T08:48:35Z", "updated_at": "2025-10-11T07:38:36Z"}}, {"model": "geodata.geonode", "pk": 16, "fields": {"country": 145, "node_type": 63, "parent": null, "level": null, "name_ru": "Плужине", "name_en": "Plužine", "name_native": "Плужине", "latitude": 43.1593384, "longitude": 18.8551484, "timezone": 466, "population": null, "iso_code": "ME-15", "wiki_data_id": "Q4864476", "created_at": "2019-10-06T08:48:35Z", "updated_at": "2025-10-09T22:48:34Z"}}, {"model": "geodata.geonode", "pk": 17, "fields": {"country": 145, "node_type": 63, "parent": null, "level": null, "name_ru": "Никшич", "name_en": "Nikšić", "name_native": "Никшић", "latitude": 42.7739388, "longitude": 18.9488097, "timezone": 466, "population": null, "iso_code": "ME-12", "wiki_data_id": "Q4865016", "created_at": "2019-10-06T08:48:35Z", "updated_at": "2025-10-09T22:48:37Z"}}, {"model": "geodata.geonode", "pk": 18, "fields": {"country": 145, "node_type": 63, "parent": null, "level": null, "name_ru": "Шавник", "name_en": "Šavnik", "name_native": "Савник", "latitude": 42.957197, "longitude": 19.0946043, "timezone": 466, "population": null, "iso_code": "ME-18", "wiki_data_id": "Q13365880", "created_at": "2019-10-06T08:48:35Z", "updated_at": "2025-10-09T22:48:40Z"}}, {"model": "geodata.geonode", "pk": 19, "fields": {"country": 145, "node_type": 63, "parent": null, "level": null, "name_ru": "Плав", "name_en": "Plav", "name_native": "Игра", "latitude": 42.6001337, "longitude": 19.9407541, "timezone": 466, "population": null, "iso_code": "ME-13", "wiki_data_id": "Q4859821", "created_at": "2019-10-06T08:48:35Z", "updated_at": "2025-10-09T22:48:43Z"}}, {"model": "geodata.geonode", "pk": 20, "fields": {"country": 145, "node_type": 63, "parent": null, "level": null, "name_ru": "Плевля", "name_en": "Pljevlja", "name_native": "Пљевља", "latitude": 43.3565611, "longitude": 19.3584715, "timezone": 466, "population": null, "iso_code": "ME-14", "wiki_data_id": "Q3299950", "created_at": "2019-10-06T08:48:35Z", "updated_at": "2025-10-09T22:48:46Z"}}, {"model": "geodata.geonode", "pk": 21, "fields": {"country": 145, "node_type": 63, "parent": null, "level": null, "name_ru": "Беране", "name_en": "Berane", "name_native": "Беране", "latitude": 42.8435792, "longitude": 19.8728701, "timezone": 466, "population": null, "iso_code": "ME-03", "wiki_data_id": "Q4853794", "created_at": "2019-10-06T08:48:35Z", "updated_at": "2025-10-09T22:48:49Z"}}, {"model": "geodata.geonode", "pk": 22, "fields": {"country": 145, "node_type": 63, "parent": null, "level": null, "name_ru": "Мойковац", "name_en": "Mojkovac", "name_native": "Мојковац", "latitude": 42.9624908, "longitude": 19.5799899, "timezone": 466, "population": null, "iso_code": "ME-11", "wiki_data_id": "Q3299782", "created_at": "2019-10-06T08:48:35Z", "updated_at": "2025-10-09T22:48:52Z"}}, {"model": "geodata.geonode", "pk": 23, "fields": {"country": 145, "node_type": 63, "parent": null, "level": null, "name_ru": "Андриевица", "name_en": "Andrijevica", "name_native": "Андријевица", "latitude": 42.7362477, "longitude": 19.7859556, "timezone": 466, "population": null, "iso_code": "ME-01", "wiki_data_id": "Q2384773", "created_at": "2019-10-06T08:48:35Z", "updated_at": "2025-10-09T22:48:55Z"}}, {"model": "geodata.geonode", "pk": 24, "fields": {"country": 145, "node_type": 63, "parent": null, "level": null, "name_ru": "Гусинье", "name_en": "Gusinje", "name_native": "Gusinje", "latitude": 42.5563455, "longitude": 19.8306051, "timezone": 466, "population": 1673, "iso_code": "ME-22", "wiki_data_id": "Q16085370", "created_at": "2019-10-06T08:48:35Z", "updated_at": "2025-11-08T23:05:18Z"}}, {"model": "geodata.geonode", "pk": 25, "fields": {"country": 145, "node_type": 63, "parent": null, "level": null, "name_ru": "Биело Поле", "name_en": "Bijelo Polje", "name_native": "Бело поље", "latitude": 43.0341595, "longitude": 19.7473559, "timezone": 466, "population": null, "iso_code": "ME-04", "wiki_data_id": "Q4086488", "created_at": "2019-10-06T08:48:35Z", "updated_at": "2025-10-09T22:49:01Z"}}, {"model": "geodata.geonode", "pk": 26, "fields": {"country": 145, "node_type": 63, "parent": null, "level": null, "name_ru": "Котор", "name_en": "Kotor", "name_native": "Котор", "latitude": 42.4249205, "longitude": 18.7713332, "timezone": 466, "population": null, "iso_code": "ME-10", "wiki_data_id": "Q4856305", "created_at": "2019-10-06T08:48:35Z", "updated_at": "2025-10-09T22:49:04Z"}}, {"model": "geodata.geonode", "pk": 27, "fields": {"country": 145, "node_type": 63, "parent": null, "level": null, "name_ru": "Подгорица", "name_en": "Podgorica", "name_native": "Подгорица", "latitude": 42.4415238, "longitude": 19.2621081, "timezone": 466, "population": null, "iso_code": "ME-16", "wiki_data_id": "Q3305250", "created_at": "2019-10-06T08:48:35Z", "updated_at": "2025-10-09T22:49:07Z"}}, {"model": "geodata.geonode", "pk": 28, "fields": {"country": 145, "node_type": 63, "parent": null, "level": null, "name_ru": "Старая королевская столица Цетинье", "name_en": "Old Royal Capital Cetinje", "name_native": "Стари краљевско престонице Цетиње", "latitude": 42.4783057, "longitude": 18.8980059, "timezone": 466, "population": 14494, "iso_code": "ME-06", "wiki_data_id": "Q3305075", "created_at": "2019-10-06T08:48:35Z", "updated_at": "2025-11-08T23:05:27Z"}}, {"model": "geodata.geonode", "pk": 29, "fields": {"country": 145, "node_type": 63, "parent": null, "level": null, "name_ru": "Тиват", "name_en": "Tivat", "name_native": "Тиват", "latitude": 42.4303762, "longitude": 18.6988104, "timezone": 466, "population": null, "iso_code": "ME-19", "wiki_data_id": "Q3738564", "created_at": "2019-10-06T08:48:35Z", "updated_at": "2025-10-09T22:49:13Z"}}, {"model": "geodata.geonode", "pk": 30, "fields": {"country": 145, "node_type": 63, "parent": null, "level": null, "name_ru": "Будва", "name_en": "Budva", "name_native": "Будва", "latitude": 42.2885656, "longitude": 18.8419505, "timezone": 466, "population": null, "iso_code": "ME-05", "wiki_data_id": "Q3739214", "created_at": "2019-10-06T08:48:35Z", "updated_at": "2025-10-09T22:49:16Z"}}, {"model": "geodata.geonode", "pk": 31, "fields": {"country": 145, "node_type": 63, "parent": null, "level": null, "name_ru": "Колашин", "name_en": "Kolašin", "name_native": "Колашин", "latitude": 42.8238387, "longitude": 19.5218005, "timezone": 466, "population": null, "iso_code": "ME-09", "wiki_data_id": "Q3303233", "created_at": "2019-10-06T08:48:35Z", "updated_at": "2025-10-09T22:49:19Z"}}, {"model": "geodata.geonode", "pk": 32, "fields": {"country": 145, "node_type": 63, "parent": null, "level": null, "name_ru": "Жабляк", "name_en": "Žabljak", "name_native": "Седло", "latitude": 43.1555152, "longitude": 19.1226018, "timezone": 466, "population": null, "iso_code": "ME-21", "wiki_data_id": "Q3304454", "created_at": "2019-10-06T08:48:35Z", "updated_at": "2025-10-09T22:49:22Z"}}, {"model": "geodata.geonode", "pk": 33, "fields": {"country": 145, "node_type": 63, "parent": null, "level": null, "name_ru": "Улцинь", "name_en": "Ulcinj", "name_native": "Улцињ", "latitude": 41.926012, "longitude": 19.2055563, "timezone": 466, "population": null, "iso_code": "ME-20", "wiki_data_id": "Q3305169", "created_at": "2019-10-06T08:48:35Z", "updated_at": "2025-10-09T22:49:25Z"}}, {"model": "geodata.geonode", "pk": 34, "fields": {"country": 150, "node_type": 75, "parent": null, "level": null, "name_ru": "Кунене", "name_en": "Kunene", "name_native": "Kunene", "latitude": -19.6792809, "longitude": 13.9756564, "timezone": 54, "population": null, "iso_code": "NA-KU", "wiki_data_id": "Q834513", "created_at": "2019-10-06T08:48:35Z", "updated_at": "2025-10-09T22:49:28Z"}}, {"model": "geodata.geonode", "pk": 35, "fields": {"country": 150, "node_type": 75, "parent": null, "level": null, "name_ru": "Каванго Вест", "name_en": "Kavango West", "name_native": "Kavango West", "latitude": -18.256111, "longitude": 18.970201, "timezone": 54, "population": 123266, "iso_code": "NA-KW", "wiki_data_id": "Q14824027", "created_at": "2019-10-06T08:48:35Z", "updated_at": "2025-11-08T23:05:40Z"}}, {"model": "geodata.geonode", "pk": 36, "fields": {"country": 150, "node_type": 75, "parent": null, "level": null, "name_ru": "Каванго Ист", "name_en": "Kavango East", "name_native": "Kavango East", "latitude": -18.3982355, "longitude": 20.72468, "timezone": 54, "population": 218421, "iso_code": "NA-KE", "wiki_data_id": "Q14824032", "created_at": "2019-10-06T08:48:35Z", "updated_at": "2025-11-08T23:05:42Z"}}, {"model": "geodata.geonode", "pk": 37, "fields": {"country": 150, "node_type": 75, "parent": null, "level": null, "name_ru": "Ошана", "name_en": "Oshana", "name_native": "Oshana", "latitude": -18.4702308, "longitude": 15.7434419, "timezone": 54, "population": 230801, "iso_code": "NA-ON", "wiki_data_id": "Q534528", "created_at": "2019-10-06T08:48:35Z", "updated_at": "2025-11-08T23:05:44Z"}}, {"model": "geodata.geonode", "pk": 38, "fields": {"country": 150, "node_type": 75, "parent": null, "level": null, "name_ru": "Хардап", "name_en": "Hardap", "name_native": "Hardap", "latitude": -24.4140944, "longitude": 17.4134051, "timezone": 54, "population": 106680, "iso_code": "NA-HA", "wiki_data_id": "Q752676", "created_at": "2019-10-06T08:48:35Z", "updated_at": "2025-11-08T23:05:46Z"}}, {"model": "geodata.geonode", "pk": 39, "fields": {"country": 150, "node_type": 75, "parent": null, "level": null, "name_ru": "Омусати", "name_en": "Omusati", "name_native": "Omusati", "latitude": -18.2862314, "longitude": 14.8856679, "timezone": 54, "population": 316671, "iso_code": "NA-OS", "wiki_data_id": "Q764385", "created_at": "2019-10-06T08:48:35Z", "updated_at": "2025-11-08T23:05:49Z"}}, {"model": "geodata.geonode", "pk": 40, "fields": {"country": 150, "node_type": 75, "parent": null, "level": null, "name_ru": "Охангвена", "name_en": "Ohangwena", "name_native": "Ohangwena", "latitude": -17.5877369, "longitude": 16.7737955, "timezone": 54, "population": 337729, "iso_code": "NA-OW", "wiki_data_id": "Q845702", "created_at": "2019-10-06T08:48:35Z", "updated_at": "2025-11-08T23:05:51Z"}}, {"model": "geodata.geonode", "pk": 41, "fields": {"country": 150, "node_type": 75, "parent": null, "level": null, "name_ru": "Омахеке", "name_en": "Omaheke", "name_native": "Omaheke", "latitude": -21.9074676, "longitude": 19.3929661, "timezone": 54, "population": 102881, "iso_code": "NA-OH", "wiki_data_id": "Q838775", "created_at": "2019-10-06T08:48:35Z", "updated_at": "2025-11-08T23:05:54Z"}}, {"model": "geodata.geonode", "pk": 42, "fields": {"country": 150, "node_type": 75, "parent": null, "level": null, "name_ru": "Ошикото", "name_en": "Oshikoto", "name_native": "Oshikoto", "latitude": -18.5464046, "longitude": 17.1019606, "timezone": 54, "population": 257302, "iso_code": "NA-OT", "wiki_data_id": "Q876512", "created_at": "2019-10-06T08:48:35Z", "updated_at": "2025-11-08T23:05:56Z"}}, {"model": "geodata.geonode", "pk": 43, "fields": {"country": 150, "node_type": 75, "parent": null, "level": null, "name_ru": "Эронго", "name_en": "Erongo", "name_native": "Erongo", "latitude": -22.0278147, "longitude": 15.389358, "timezone": 54, "population": 240206, "iso_code": "NA-ER", "wiki_data_id": "Q648753", "created_at": "2019-10-06T08:48:35Z", "updated_at": "2025-11-08T23:05:58Z"}}, {"model": "geodata.geonode", "pk": 44, "fields": {"country": 150, "node_type": 75, "parent": null, "level": null, "name_ru": "Хомас", "name_en": "Khomas", "name_native": "Khomas", "latitude": -22.9082553, "longitude": 17.09198, "timezone": 54, "population": null, "iso_code": "NA-KH", "wiki_data_id": "Q834508", "created_at": "2019-10-06T08:48:35Z", "updated_at": "2025-10-09T22:50:00Z"}}, {"model": "geodata.geonode", "pk": 45, "fields": {"country": 150, "node_type": 75, "parent": null, "level": null, "name_ru": "Карас", "name_en": "Karas", "name_native": "Karas", "latitude": -26.8752094, "longitude": 17.7634818, "timezone": 54, "population": null, "iso_code": "NA-KA", "wiki_data_id": "Q573467", "created_at": "2019-10-06T08:48:35Z", "updated_at": "2025-10-09T22:50:03Z"}}, {"model": "geodata.geonode", "pk": 46, "fields": {"country": 150, "node_type": 75, "parent": null, "level": null, "name_ru": "Отджозондьюпа", "name_en": "Otjozondjupa", "name_native": "Otjozondjupa", "latitude": -19.9424962, "longitude": 18.395886, "timezone": 54, "population": 220811, "iso_code": "NA-OD", "wiki_data_id": "Q876506", "created_at": "2019-10-06T08:48:36Z", "updated_at": "2025-11-08T23:06:04Z"}}, {"model": "geodata.geonode", "pk": 47, "fields": {"country": 150, "node_type": 75, "parent": null, "level": null, "name_ru": "Замбези", "name_en": "Zambezi", "name_native": "Zambezi", "latitude": -17.6912922, "longitude": 24.1377371, "timezone": 54, "population": null, "iso_code": "NA-CA", "wiki_data_id": "Q473190", "created_at": "2019-10-06T08:48:36Z", "updated_at": "2025-10-09T22:50:09Z"}}, {"model": "geodata.geonode", "pk": 48, "fields": {"country": 82, "node_type": 75, "parent": null, "level": null, "name_ru": "Ашанти", "name_en": "Ashanti", "name_native": "Ashanti", "latitude": 6.8003319, "longitude": -1.5188142, "timezone": 2, "population": null, "iso_code": "GH-AH", "wiki_data_id": "Q398417", "created_at": "2019-10-06T03:18:36Z", "updated_at": "2025-10-09T22:50:12Z"}}, {"model": "geodata.geonode", "pk": 49, "fields": {"country": 82, "node_type": 75, "parent": null, "level": null, "name_ru": "Западный", "name_en": "Western", "name_native": "Western", "latitude": 5.4261241, "longitude": -2.1286574, "timezone": 2, "population": null, "iso_code": "GH-WP", "wiki_data_id": "Q870155", "created_at": "2019-10-06T03:18:36Z", "updated_at": "2025-10-09T22:50:14Z"}}, {"model": "geodata.geonode", "pk": 50, "fields": {"country": 82, "node_type": 75, "parent": null, "level": null, "name_ru": "Восточный", "name_en": "Eastern", "name_native": "Eastern", "latitude": 6.446877, "longitude": -0.3770964, "timezone": 2, "population": null, "iso_code": "GH-EP", "wiki_data_id": "Q405670", "created_at": "2019-10-06T03:18:36Z", "updated_at": "2025-10-09T22:50:17Z"}}, {"model": "geodata.geonode", "pk": 51, "fields": {"country": 82, "node_type": 75, "parent": null, "level": null, "name_ru": "Северный", "name_en": "Northern", "name_native": "Northern", "latitude": 9.6600005, "longitude": -0.3943799, "timezone": 2, "population": null, "iso_code": "GH-NP", "wiki_data_id": "Q502215", "created_at": "2019-10-06T03:18:36Z", "updated_at": "2025-10-09T22:50:20Z"}}, {"model": "geodata.geonode", "pk": 52, "fields": {"country": 82, "node_type": 75, "parent": null, "level": null, "name_ru": "Центральный", "name_en": "Central", "name_native": "Central", "latitude": 5.7244148, "longitude": -1.3761749, "timezone": 2, "population": null, "iso_code": "GH-CP", "wiki_data_id": "Q846323", "created_at": "2019-10-06T03:18:36Z", "updated_at": "2025-10-09T22:50:22Z"}}, {"model": "geodata.geonode", "pk": 53, "fields": {"country": 82, "node_type": 75, "parent": null, "level": null, "name_ru": "Ахафо", "name_en": "Ahafo", "name_native": "Ahafo", "latitude": 6.9096645, "longitude": -2.2330123, "timezone": 2, "population": null, "iso_code": "GH-AF", "wiki_data_id": "Q48804007", "created_at": "2019-10-06T03:18:36Z", "updated_at": "2025-10-09T22:50:25Z"}}, {"model": "geodata.geonode", "pk": 54, "fields": {"country": 82, "node_type": 75, "parent": null, "level": null, "name_ru": "Большая Аккра", "name_en": "Greater Accra", "name_native": "Greater Accra", "latitude": 5.8101532, "longitude": 0.0995242, "timezone": 2, "population": 5455692, "iso_code": "GH-AA", "wiki_data_id": "Q431729", "created_at": "2019-10-06T03:18:36Z", "updated_at": "2025-11-08T23:06:18Z"}}, {"model": "geodata.geonode", "pk": 55, "fields": {"country": 82, "node_type": 75, "parent": null, "level": null, "name_ru": "Верхний Восток", "name_en": "Upper East", "name_native": "Upper East", "latitude": 10.7245907, "longitude": -0.8196591, "timezone": 2, "population": null, "iso_code": "GH-UE", "wiki_data_id": "Q712828", "created_at": "2019-10-06T03:18:36Z", "updated_at": "2025-10-09T22:50:31Z"}}, {"model": "geodata.geonode", "pk": 56, "fields": {"country": 82, "node_type": 75, "parent": null, "level": null, "name_ru": "Вольта", "name_en": "Volta", "name_native": "Volta", "latitude": 6.5348624, "longitude": 0.4556055, "timezone": 2, "population": null, "iso_code": "GH-TV", "wiki_data_id": "Q712832", "created_at": "2019-10-06T03:18:36Z", "updated_at": "2025-10-09T22:50:34Z"}}, {"model": "geodata.geonode", "pk": 57, "fields": {"country": 82, "node_type": 75, "parent": null, "level": null, "name_ru": "Верхний Запад", "name_en": "Upper West", "name_native": "Upper West", "latitude": 10.3669525, "longitude": -2.0921426, "timezone": 2, "population": null, "iso_code": "GH-UW", "wiki_data_id": "Q715805", "created_at": "2019-10-06T03:18:36Z", "updated_at": "2025-10-09T22:50:37Z"}}, {"model": "geodata.geonode", "pk": 58, "fields": {"country": 191, "node_type": 63, "parent": null, "level": null, "name_ru": "Сан-Марино", "name_en": "San Marino", "name_native": "San Marino", "latitude": 43.94236, "longitude": 12.457777, "timezone": 471, "population": null, "iso_code": "SM-07", "wiki_data_id": "Q1848", "created_at": "2019-10-06T08:48:36Z", "updated_at": "2025-10-19T03:56:39Z"}}, {"model": "geodata.geonode", "pk": 59, "fields": {"country": 191, "node_type": 63, "parent": null, "level": null, "name_ru": "Аквавива", "name_en": "Acquaviva", "name_native": "Acquaviva", "latitude": 43.9464246, "longitude": 12.4191909, "timezone": 471, "population": null, "iso_code": "SM-01", "wiki_data_id": "Q206363", "created_at": "2019-10-06T08:48:36Z", "updated_at": "2025-10-19T03:56:39Z"}}, {"model": "geodata.geonode", "pk": 60, "fields": {"country": 191, "node_type": 63, "parent": null, "level": null, "name_ru": "Кьезануова", "name_en": "Chiesanuova", "name_native": "Chiesanuova", "latitude": 43.9053382, "longitude": 12.4220187, "timezone": 471, "population": 1191, "iso_code": "SM-02", "wiki_data_id": "Q206980", "created_at": "2019-10-06T08:48:36Z", "updated_at": "2025-11-08T23:06:30Z"}}, {"model": "geodata.geonode", "pk": 61, "fields": {"country": 191, "node_type": 63, "parent": null, "level": null, "name_ru": "Борго Маджоре", "name_en": "Borgo Maggiore", "name_native": "Borgo Maggiore", "latitude": 43.9411865, "longitude": 12.447422, "timezone": 471, "population": 6953, "iso_code": "SM-06", "wiki_data_id": "Q201368", "created_at": "2019-10-06T08:48:36Z", "updated_at": "2025-11-08T23:06:32Z"}}, {"model": "geodata.geonode", "pk": 62, "fields": {"country": 191, "node_type": 63, "parent": null, "level": null, "name_ru": "Фаэтано", "name_en": "Faetano", "name_native": "Condizione", "latitude": 43.9269122, "longitude": 12.4974633, "timezone": 471, "population": 1188, "iso_code": "SM-04", "wiki_data_id": "Q206356", "created_at": "2019-10-06T08:48:36Z", "updated_at": "2025-11-08T23:06:34Z"}}, {"model": "geodata.geonode", "pk": 63, "fields": {"country": 191, "node_type": 63, "parent": null, "level": null, "name_ru": "Монтеджардино", "name_en": "Montegiardino", "name_native": "Montegiardino", "latitude": 43.9052999, "longitude": 12.4810542, "timezone": 471, "population": 1004, "iso_code": "SM-08", "wiki_data_id": "Q206962", "created_at": "2019-10-06T08:48:36Z", "updated_at": "2025-11-08T23:06:36Z"}}, {"model": "geodata.geonode", "pk": 64, "fields": {"country": 191, "node_type": 63, "parent": null, "level": null, "name_ru": "Доманьяно", "name_en": "Domagnano", "name_native": "Domagnano", "latitude": 43.9501929, "longitude": 12.4681537, "timezone": 471, "population": 3617, "iso_code": "SM-03", "wiki_data_id": "Q202202", "created_at": "2019-10-06T08:48:36Z", "updated_at": "2025-11-08T23:06:38Z"}}, {"model": "geodata.geonode", "pk": 65, "fields": {"country": 191, "node_type": 63, "parent": null, "level": null, "name_ru": "Серравалле", "name_en": "Serravalle", "name_native": "Serravalle", "latitude": 43.9699026, "longitude": 12.4802946, "timezone": 471, "population": null, "iso_code": "SM-09", "wiki_data_id": "Q185412", "created_at": "2019-10-06T08:48:36Z", "updated_at": "2025-10-19T03:56:39Z"}}, {"model": "geodata.geonode", "pk": 66, "fields": {"country": 191, "node_type": 63, "parent": null, "level": null, "name_ru": "Фиорентино", "name_en": "Fiorentino", "name_native": "Fiorentino", "latitude": 43.9078337, "longitude": 12.4581209, "timezone": 471, "population": 2607, "iso_code": "SM-05", "wiki_data_id": "Q206968", "created_at": "2019-10-06T08:48:36Z", "updated_at": "2025-11-08T23:06:41Z"}}, {"model": "geodata.geonode", "pk": 67, "fields": {"country": 157, "node_type": 75, "parent": null, "level": null, "name_ru": "Тиллабери", "name_en": "Tillabéri", "name_native": "Tilla", "latitude": 13.7251068, "longitude": 1.6961456, "timezone": 46, "population": null, "iso_code": "NE-6", "wiki_data_id": "Q861914", "created_at": "2019-10-06T08:48:36Z", "updated_at": "2025-10-09T22:51:08Z"}}, {"model": "geodata.geonode", "pk": 68, "fields": {"country": 157, "node_type": 75, "parent": null, "level": null, "name_ru": "Доссо", "name_en": "Dosso", "name_native": "Dossier", "latitude": 13.1658009, "longitude": 3.3068075, "timezone": 46, "population": null, "iso_code": "NE-3", "wiki_data_id": "Q850055", "created_at": "2019-10-06T08:48:36Z", "updated_at": "2025-10-09T22:51:11Z"}}, {"model": "geodata.geonode", "pk": 69, "fields": {"country": 157, "node_type": 75, "parent": null, "level": null, "name_ru": "Зиндер", "name_en": "Zinder", "name_native": "Zinder", "latitude": 15.1787, "longitude": 9.7074108, "timezone": 46, "population": 235605, "iso_code": "NE-7", "wiki_data_id": "Q204367", "created_at": "2019-10-06T08:48:36Z", "updated_at": "2025-11-08T23:06:46Z"}}, {"model": "geodata.geonode", "pk": 70, "fields": {"country": 157, "node_type": 75, "parent": null, "level": null, "name_ru": "Маради", "name_en": "Maradi", "name_native": "Marigi", "latitude": 14.224, "longitude": 7.4717877, "timezone": 46, "population": null, "iso_code": "NE-4", "wiki_data_id": "Q850036", "created_at": "2019-10-06T08:48:36Z", "updated_at": "2025-10-09T22:51:17Z"}}, {"model": "geodata.geonode", "pk": 71, "fields": {"country": 157, "node_type": 75, "parent": null, "level": null, "name_ru": "Агадес", "name_en": "Agadez", "name_native": "Agadez", "latitude": 19.4211115, "longitude": 10.6846987, "timezone": 46, "population": 110497, "iso_code": "NE-1", "wiki_data_id": "Q389944", "created_at": "2019-10-06T08:48:36Z", "updated_at": "2025-11-08T23:06:51Z"}}, {"model": "geodata.geonode", "pk": 72, "fields": {"country": 157, "node_type": 75, "parent": null, "level": null, "name_ru": "Диффа", "name_en": "Diffa", "name_native": "Distraction", "latitude": 13.4880875, "longitude": 12.5136266, "timezone": 46, "population": null, "iso_code": "NE-2", "wiki_data_id": "Q1053302", "created_at": "2019-10-06T08:48:36Z", "updated_at": "2025-10-09T22:51:23Z"}}, {"model": "geodata.geonode", "pk": 73, "fields": {"country": 157, "node_type": 75, "parent": null, "level": null, "name_ru": "Тахуа", "name_en": "Tahoua", "name_native": "Unité", "latitude": 16.1576745, "longitude": 5.3282652, "timezone": 46, "population": 117826, "iso_code": "NE-5", "wiki_data_id": "Q871083", "created_at": "2019-10-06T08:48:36Z", "updated_at": "2025-11-08T23:06:54Z"}}, {"model": "geodata.geonode", "pk": 74, "fields": {"country": 133, "node_type": 55, "parent": null, "level": null, "name_ru": "Мкабба", "name_en": "Mqabba", "name_native": "Mqabba", "latitude": 35.8444143, "longitude": 14.4694186, "timezone": 458, "population": 3339, "iso_code": "MT-33", "wiki_data_id": "Q1017953", "created_at": "2019-10-06T08:48:36Z", "updated_at": "2025-11-08T23:06:56Z"}}, {"model": "geodata.geonode", "pk": 75, "fields": {"country": 133, "node_type": 55, "parent": null, "level": null, "name_ru": "Сан-Гванн", "name_en": "San Ġwann", "name_native": "San Ġwann", "latitude": 35.9077365, "longitude": 14.4752416, "timezone": 458, "population": 14720, "iso_code": "MT-49", "wiki_data_id": "Q39507", "created_at": "2019-10-06T08:48:36Z", "updated_at": "2025-11-08T23:06:57Z"}}, {"model": "geodata.geonode", "pk": 76, "fields": {"country": 133, "node_type": 55, "parent": null, "level": null, "name_ru": "Зуррик", "name_en": "Żurrieq", "name_native": "Żurrieq", "latitude": 35.8294676, "longitude": 14.4745172, "timezone": 458, "population": 10962, "iso_code": "MT-68", "wiki_data_id": "Q44417", "created_at": "2019-10-06T08:48:36Z", "updated_at": "2025-11-08T23:07:00Z"}}, {"model": "geodata.geonode", "pk": 77, "fields": {"country": 133, "node_type": 55, "parent": null, "level": null, "name_ru": "Лука", "name_en": "Luqa", "name_native": "Luqa", "latitude": 35.8582865, "longitude": 14.4868883, "timezone": 458, "population": 6162, "iso_code": "MT-25", "wiki_data_id": "Q475585", "created_at": "2019-10-06T08:48:36Z", "updated_at": "2025-11-08T23:07:02Z"}}, {"model": "geodata.geonode", "pk": 78, "fields": {"country": 133, "node_type": 55, "parent": null, "level": null, "name_ru": "Марсашлокк", "name_en": "Marsaxlokk", "name_native": "Marsaxlokk", "latitude": 35.8411699, "longitude": 14.5393097, "timezone": 458, "population": 3660, "iso_code": "MT-28", "wiki_data_id": "Q781921", "created_at": "2019-10-06T08:48:36Z", "updated_at": "2025-11-08T23:07:04Z"}}, {"model": "geodata.geonode", "pk": 79, "fields": {"country": 133, "node_type": 55, "parent": null, "level": null, "name_ru": "Кала", "name_en": "Qala", "name_native": "Qala", "latitude": 36.0388628, "longitude": 14.318101, "timezone": 458, "population": null, "iso_code": "MT-42", "wiki_data_id": "Q1088033", "created_at": "2019-10-06T08:48:36Z", "updated_at": "2025-10-09T22:51:45Z"}}, {"model": "geodata.geonode", "pk": 80, "fields": {"country": 133, "node_type": 55, "parent": null, "level": null, "name_ru": "Żebbuġ Malta", "name_en": "Żebbuġ Malta", "name_native": "Żebbuġ Malta", "latitude": 35.8764648, "longitude": 14.439084, "timezone": 458, "population": 11079, "iso_code": "MT-66", "wiki_data_id": "Q44573", "created_at": "2019-10-06T08:48:36Z", "updated_at": "2025-11-08T23:07:08Z"}}, {"model": "geodata.geonode", "pk": 81, "fields": {"country": 133, "node_type": 55, "parent": null, "level": null, "name_ru": "Xgħajra", "name_en": "Xgħajra", "name_native": "Xgħajra", "latitude": 35.8868282, "longitude": 14.5472391, "timezone": 458, "population": 1830, "iso_code": "MT-63", "wiki_data_id": "Q520962", "created_at": "2019-10-06T08:48:36Z", "updated_at": "2025-11-08T23:07:09Z"}}, {"model": "geodata.geonode", "pk": 82, "fields": {"country": 133, "node_type": 55, "parent": null, "level": null, "name_ru": "Киркоп", "name_en": "Kirkop", "name_native": "Kirkop", "latitude": 35.8437862, "longitude": 14.4854324, "timezone": 458, "population": 2397, "iso_code": "MT-23", "wiki_data_id": "Q597464", "created_at": "2019-10-06T08:48:36Z", "updated_at": "2025-11-08T23:07:11Z"}}, {"model": "geodata.geonode", "pk": 83, "fields": {"country": 133, "node_type": 55, "parent": null, "level": null, "name_ru": "Рабат", "name_en": "Rabat", "name_native": "Rabat", "latitude": 35.884717, "longitude": 14.37234, "timezone": 458, "population": null, "iso_code": "MT-46", "wiki_data_id": "Q44381", "created_at": "2019-10-06T08:48:36Z", "updated_at": "2025-10-09T22:51:57Z"}}, {"model": "geodata.geonode", "pk": 84, "fields": {"country": 133, "node_type": 55, "parent": null, "level": null, "name_ru": "Флориана", "name_en": "Floriana", "name_native": "Floriana", "latitude": 35.8929838, "longitude": 14.5052716, "timezone": 458, "population": 2032, "iso_code": "MT-09", "wiki_data_id": "Q832807", "created_at": "2019-10-06T08:48:36Z", "updated_at": "2025-11-08T23:07:15Z"}}, {"model": "geodata.geonode", "pk": 85, "fields": {"country": 133, "node_type": 55, "parent": null, "level": null, "name_ru": "Żebbuġ Gozo", "name_en": "Żebbuġ Gozo", "name_native": "Żebbuġ Gozo", "latitude": 36.0716403, "longitude": 14.245408, "timezone": 458, "population": 2956, "iso_code": "MT-65", "wiki_data_id": "Q179243", "created_at": "2019-10-06T08:48:36Z", "updated_at": "2025-11-08T23:07:18Z"}}, {"model": "geodata.geonode", "pk": 86, "fields": {"country": 133, "node_type": 55, "parent": null, "level": null, "name_ru": "Свийи", "name_en": "Swieqi", "name_native": "Swieqi", "latitude": 35.9191182, "longitude": 14.4694186, "timezone": 458, "population": 14452, "iso_code": "MT-57", "wiki_data_id": "Q220667", "created_at": "2019-10-06T08:48:36Z", "updated_at": "2025-11-08T23:07:19Z"}}, {"model": "geodata.geonode", "pk": 87, "fields": {"country": 133, "node_type": 55, "parent": null, "level": null, "name_ru": "Сан-Лоренц", "name_en": "San Lawrenz", "name_native": "San Lawrenz", "latitude": 36.0553005, "longitude": 14.2039503, "timezone": 458, "population": 748, "iso_code": "MT-50", "wiki_data_id": "Q537308", "created_at": "2019-10-06T08:48:36Z", "updated_at": "2025-11-08T23:07:22Z"}}, {"model": "geodata.geonode", "pk": 88, "fields": {"country": 133, "node_type": 55, "parent": null, "level": null, "name_ru": "Бирзеббуджа", "name_en": "Birżebbuġa", "name_native": "Birżebbuġa", "latitude": 35.8269478, "longitude": 14.5274189, "timezone": 458, "population": 12915, "iso_code": "MT-05", "wiki_data_id": "Q258028", "created_at": "2019-10-06T08:48:36Z", "updated_at": "2025-11-08T23:07:24Z"}}, {"model": "geodata.geonode", "pk": 89, "fields": {"country": 133, "node_type": 55, "parent": null, "level": null, "name_ru": "Мдина", "name_en": "Mdina", "name_native": "Mdina", "latitude": 35.888093, "longitude": 14.4068357, "timezone": 458, "population": 250, "iso_code": "MT-29", "wiki_data_id": "Q207277", "created_at": "2019-10-06T08:48:36Z", "updated_at": "2025-11-08T23:07:25Z"}}, {"model": "geodata.geonode", "pk": 90, "fields": {"country": 133, "node_type": 55, "parent": null, "level": null, "name_ru": "Санта-Венера", "name_en": "Santa Venera", "name_native": "Santa Venera", "latitude": 35.8902201, "longitude": 14.4766974, "timezone": 458, "population": 7590, "iso_code": "MT-54", "wiki_data_id": "Q585420", "created_at": "2019-10-06T08:48:36Z", "updated_at": "2025-11-08T23:07:28Z"}}, {"model": "geodata.geonode", "pk": 91, "fields": {"country": 133, "node_type": 55, "parent": null, "level": null, "name_ru": "Керчем", "name_en": "Kerċem", "name_native": "Kerċem", "latitude": 36.0447939, "longitude": 14.2250605, "timezone": 458, "population": 1938, "iso_code": "MT-22", "wiki_data_id": "Q674679", "created_at": "2019-10-06T08:48:36Z", "updated_at": "2025-11-08T23:07:30Z"}}, {"model": "geodata.geonode", "pk": 92, "fields": {"country": 133, "node_type": 55, "parent": null, "level": null, "name_ru": "Гарб", "name_en": "Għarb", "name_native": "Għarb", "latitude": 36.0598182, "longitude": 14.209081, "timezone": 458, "population": 1549, "iso_code": "MT-14", "wiki_data_id": "Q1026487", "created_at": "2019-10-06T08:48:36Z", "updated_at": "2025-11-08T23:07:33Z"}}, {"model": "geodata.geonode", "pk": 93, "fields": {"country": 133, "node_type": 55, "parent": null, "level": null, "name_ru": "Иклин", "name_en": "Iklin", "name_native": "Iklin", "latitude": 35.9098774, "longitude": 14.4577732, "timezone": 458, "population": 3422, "iso_code": "MT-19", "wiki_data_id": "Q304589", "created_at": "2019-10-06T08:48:36Z", "updated_at": "2025-11-08T23:07:35Z"}}, {"model": "geodata.geonode", "pk": 94, "fields": {"country": 133, "node_type": 55, "parent": null, "level": null, "name_ru": "Санта Луция", "name_en": "Santa Luċija", "name_native": "Santa Luċija", "latitude": 35.856142, "longitude": 14.50436, "timezone": 458, "population": 2954, "iso_code": "MT-53", "wiki_data_id": "Q1087776", "created_at": "2019-10-06T08:48:36Z", "updated_at": "2025-11-08T23:07:37Z"}}, {"model": "geodata.geonode", "pk": 95, "fields": {"country": 133, "node_type": 55, "parent": null, "level": null, "name_ru": "Валлетта", "name_en": "Valletta", "name_native": "Valletta", "latitude": 35.8989085, "longitude": 14.5145528, "timezone": 458, "population": null, "iso_code": "MT-60", "wiki_data_id": "Q23800", "created_at": "2019-10-06T08:48:36Z", "updated_at": "2025-10-09T22:52:34Z"}}, {"model": "geodata.geonode", "pk": 96, "fields": {"country": 133, "node_type": 55, "parent": null, "level": null, "name_ru": "Мсида", "name_en": "Msida", "name_native": "Msida", "latitude": 35.8956388, "longitude": 14.4868883, "timezone": 458, "population": 13713, "iso_code": "MT-34", "wiki_data_id": "Q585187", "created_at": "2019-10-06T08:48:36Z", "updated_at": "2025-11-08T23:07:40Z"}}, {"model": "geodata.geonode", "pk": 97, "fields": {"country": 133, "node_type": 55, "parent": null, "level": null, "name_ru": "Биркиркара", "name_en": "Birkirkara", "name_native": "Birkirkara", "latitude": 35.8954706, "longitude": 14.4665072, "timezone": 458, "population": 24356, "iso_code": "MT-04", "wiki_data_id": "Q39583", "created_at": "2019-10-06T08:48:36Z", "updated_at": "2025-11-08T23:07:42Z"}}, {"model": "geodata.geonode", "pk": 98, "fields": {"country": 133, "node_type": 55, "parent": null, "level": null, "name_ru": "Сиггиеви", "name_en": "Siġġiewi", "name_native": "Siġġiewi", "latitude": 35.8539354, "longitude": 14.438063, "timezone": 458, "population": 9318, "iso_code": "MT-55", "wiki_data_id": "Q919908", "created_at": "2019-10-06T08:48:36Z", "updated_at": "2025-11-08T23:07:44Z"}}, {"model": "geodata.geonode", "pk": 99, "fields": {"country": 133, "node_type": 55, "parent": null, "level": null, "name_ru": "Калкара", "name_en": "Kalkara", "name_native": "Kalkara", "latitude": 35.8914242, "longitude": 14.5320278, "timezone": 458, "population": 3059, "iso_code": "MT-21", "wiki_data_id": "Q533257", "created_at": "2019-10-06T08:48:36Z", "updated_at": "2025-11-08T23:07:46Z"}}, {"model": "geodata.geonode", "pk": 100, "fields": {"country": 133, "node_type": 55, "parent": null, "level": null, "name_ru": "Сент-Джулианс", "name_en": "St. Julian's", "name_native": "San Ġiljan", "latitude": 35.9199225, "longitude": 14.4877119, "timezone": 458, "population": 13792, "iso_code": "MT-48", "wiki_data_id": "Q669979", "created_at": "2019-10-06T08:48:36Z", "updated_at": "2025-11-08T23:07:49Z"}}, {"model": "geodata.geonode", "pk": 101, "fields": {"country": 133, "node_type": 55, "parent": null, "level": null, "name_ru": "Виктория", "name_en": "Victoria", "name_native": "Victoria", "latitude": 36.0428907, "longitude": 14.2398479, "timezone": 458, "population": null, "iso_code": "MT-45", "wiki_data_id": "Q752348", "created_at": "2019-10-06T08:48:36Z", "updated_at": "2025-10-09T22:52:52Z"}}, {"model": "geodata.geonode", "pk": 102, "fields": {"country": 133, "node_type": 55, "parent": null, "level": null, "name_ru": "Меллиха", "name_en": "Mellieħa", "name_native": "Mellieħa", "latitude": 35.9599618, "longitude": 14.368367, "timezone": 458, "population": 11389, "iso_code": "MT-30", "wiki_data_id": "Q755979", "created_at": "2019-10-06T08:48:36Z", "updated_at": "2025-11-08T23:07:53Z"}}, {"model": "geodata.geonode", "pk": 103, "fields": {"country": 133, "node_type": 55, "parent": null, "level": null, "name_ru": "Тарксиен", "name_en": "Tarxien", "name_native": "Tarxien", "latitude": 35.8672552, "longitude": 14.5116405, "timezone": 458, "population": 8627, "iso_code": "MT-59", "wiki_data_id": "Q744001", "created_at": "2019-10-06T08:48:36Z", "updated_at": "2025-11-08T23:07:55Z"}}, {"model": "geodata.geonode", "pk": 104, "fields": {"country": 133, "node_type": 55, "parent": null, "level": null, "name_ru": "Слима", "name_en": "Sliema", "name_native": "Sliema", "latitude": 35.9110081, "longitude": 14.502904, "timezone": 458, "population": 22591, "iso_code": "MT-56", "wiki_data_id": "Q39526", "created_at": "2019-10-06T08:48:36Z", "updated_at": "2025-11-08T23:07:58Z"}}, {"model": "geodata.geonode", "pk": 105, "fields": {"country": 133, "node_type": 55, "parent": null, "level": null, "name_ru": "Хамрун", "name_en": "Ħamrun", "name_native": "Ħamrun", "latitude": 35.8861237, "longitude": 14.4883442, "timezone": 458, "population": 9743, "iso_code": "MT-18", "wiki_data_id": "Q343001", "created_at": "2019-10-06T08:48:36Z", "updated_at": "2025-11-08T23:08:00Z"}}, {"model": "geodata.geonode", "pk": 106, "fields": {"country": 133, "node_type": 55, "parent": null, "level": null, "name_ru": "Гасри", "name_en": "Għasri", "name_native": "Għasri", "latitude": 36.0668075, "longitude": 14.2192475, "timezone": 458, "population": 424, "iso_code": "MT-16", "wiki_data_id": "Q1017339", "created_at": "2019-10-06T08:48:36Z", "updated_at": "2025-11-08T23:08:02Z"}}, {"model": "geodata.geonode", "pk": 107, "fields": {"country": 133, "node_type": 55, "parent": null, "level": null, "name_ru": "Биргу", "name_en": "Birgu", "name_native": "Birgu", "latitude": 35.8879214, "longitude": 14.522562, "timezone": 458, "population": 2489, "iso_code": "MT-03", "wiki_data_id": "Q752346", "created_at": "2019-10-06T08:48:36Z", "updated_at": "2025-11-08T23:08:03Z"}}, {"model": "geodata.geonode", "pk": 108, "fields": {"country": 133, "node_type": 55, "parent": null, "level": null, "name_ru": "Бальзан", "name_en": "Balzan", "name_native": "Balzan", "latitude": 35.8957414, "longitude": 14.4534065, "timezone": 458, "population": 4689, "iso_code": "MT-02", "wiki_data_id": "Q789794", "created_at": "2019-10-06T08:48:36Z", "updated_at": "2025-11-08T23:08:05Z"}}, {"model": "geodata.geonode", "pk": 109, "fields": {"country": 133, "node_type": 55, "parent": null, "level": null, "name_ru": "Мджарр", "name_en": "Mġarr", "name_native": "Mġarr", "latitude": 35.9189327, "longitude": 14.3617343, "timezone": 458, "population": 4840, "iso_code": "MT-31", "wiki_data_id": "Q691220", "created_at": "2019-10-06T08:48:36Z", "updated_at": "2025-11-08T23:08:07Z"}}, {"model": "geodata.geonode", "pk": 110, "fields": {"country": 133, "node_type": 55, "parent": null, "level": null, "name_ru": "Аттард", "name_en": "Attard", "name_native": "Attard", "latitude": 35.8909172, "longitude": 14.4430093, "timezone": 458, "population": 11377, "iso_code": "MT-01", "wiki_data_id": "Q44557", "created_at": "2019-10-06T08:48:36Z", "updated_at": "2025-11-08T23:08:08Z"}}, {"model": "geodata.geonode", "pk": 111, "fields": {"country": 133, "node_type": 55, "parent": null, "level": null, "name_ru": "Кренди", "name_en": "Qrendi", "name_native": "Qrendi", "latitude": 35.8328488, "longitude": 14.4548621, "timezone": 458, "population": 3321, "iso_code": "MT-44", "wiki_data_id": "Q282203", "created_at": "2019-10-06T08:48:36Z", "updated_at": "2025-11-08T23:08:10Z"}}, {"model": "geodata.geonode", "pk": 112, "fields": {"country": 133, "node_type": 55, "parent": null, "level": null, "name_ru": "Нашшар", "name_en": "Naxxar", "name_native": "Naxxar", "latitude": 35.9133396, "longitude": 14.4432851, "timezone": 458, "population": 14890, "iso_code": "MT-38", "wiki_data_id": "Q44397", "created_at": "2019-10-06T08:48:36Z", "updated_at": "2025-11-08T23:08:12Z"}}, {"model": "geodata.geonode", "pk": 113, "fields": {"country": 133, "node_type": 55, "parent": null, "level": null, "name_ru": "Гзира", "name_en": "Gżira", "name_native": "Gżira", "latitude": 35.905897, "longitude": 14.4953338, "timezone": 458, "population": 11669, "iso_code": "MT-12", "wiki_data_id": "Q632097", "created_at": "2019-10-06T08:48:36Z", "updated_at": "2025-11-08T23:08:14Z"}}, {"model": "geodata.geonode", "pk": 114, "fields": {"country": 133, "node_type": 55, "parent": null, "level": null, "name_ru": "Xagħra", "name_en": "Xagħra", "name_native": "Xagħra", "latitude": 36.050845, "longitude": 14.267482, "timezone": 458, "population": 4886, "iso_code": "MT-61", "wiki_data_id": "Q605343", "created_at": "2019-10-06T08:48:36Z", "updated_at": "2025-11-08T23:08:16Z"}}, {"model": "geodata.geonode", "pk": 115, "fields": {"country": 133, "node_type": 55, "parent": null, "level": null, "name_ru": "Паола", "name_en": "Paola", "name_native": "Paola", "latitude": 35.8717994, "longitude": 14.5073748, "timezone": 458, "population": null, "iso_code": "MT-39", "wiki_data_id": "Q846589", "created_at": "2019-10-06T08:48:36Z", "updated_at": "2025-10-09T22:53:34Z"}}, {"model": "geodata.geonode", "pk": 116, "fields": {"country": 133, "node_type": 55, "parent": null, "level": null, "name_ru": "Саннат", "name_en": "Sannat", "name_native": "Sannat", "latitude": 36.0273022, "longitude": 14.2429017, "timezone": 458, "population": 2117, "iso_code": "MT-52", "wiki_data_id": "Q602037", "created_at": "2019-10-06T08:48:36Z", "updated_at": "2025-11-08T23:08:19Z"}}, {"model": "geodata.geonode", "pk": 117, "fields": {"country": 133, "node_type": 55, "parent": null, "level": null, "name_ru": "Дингли", "name_en": "Dingli", "name_native": "Dingli", "latitude": 35.8627309, "longitude": 14.3850107, "timezone": 458, "population": 3711, "iso_code": "MT-07", "wiki_data_id": "Q905641", "created_at": "2019-10-06T08:48:36Z", "updated_at": "2025-11-08T23:08:22Z"}}, {"model": "geodata.geonode", "pk": 118, "fields": {"country": 133, "node_type": 55, "parent": null, "level": null, "name_ru": "Гуджа", "name_en": "Gudja", "name_native": "Gudja", "latitude": 35.8469803, "longitude": 14.502904, "timezone": 458, "population": 3184, "iso_code": "MT-11", "wiki_data_id": "Q1018153", "created_at": "2019-10-06T08:48:36Z", "updated_at": "2025-11-08T23:08:26Z"}}, {"model": "geodata.geonode", "pk": 119, "fields": {"country": 133, "node_type": 55, "parent": null, "level": null, "name_ru": "Корми", "name_en": "Qormi", "name_native": "Qormi", "latitude": 35.8764388, "longitude": 14.4694186, "timezone": 458, "population": 24282, "iso_code": "MT-43", "wiki_data_id": "Q39578", "created_at": "2019-10-06T08:48:36Z", "updated_at": "2025-11-08T23:08:27Z"}}, {"model": "geodata.geonode", "pk": 120, "fields": {"country": 133, "node_type": 55, "parent": null, "level": null, "name_ru": "Гаргур", "name_en": "Għargħur", "name_native": "Għargħur", "latitude": 35.9220569, "longitude": 14.4563176, "timezone": 458, "population": 2857, "iso_code": "MT-15", "wiki_data_id": "Q1018111", "created_at": "2019-10-06T08:48:36Z", "updated_at": "2025-11-08T23:08:29Z"}}, {"model": "geodata.geonode", "pk": 121, "fields": {"country": 133, "node_type": 55, "parent": null, "level": null, "name_ru": "Шеукия", "name_en": "Xewkija", "name_native": "Xewkija", "latitude": 36.0299236, "longitude": 14.2599437, "timezone": 458, "population": 3300, "iso_code": "MT-62", "wiki_data_id": "Q919921", "created_at": "2019-10-06T08:48:36Z", "updated_at": "2025-11-08T23:08:31Z"}}, {"model": "geodata.geonode", "pk": 122, "fields": {"country": 133, "node_type": 55, "parent": null, "level": null, "name_ru": "Та' Ксбиекс", "name_en": "Ta' Xbiex", "name_native": "Ta' Xbiex", "latitude": 35.8991448, "longitude": 14.4963519, "timezone": 458, "population": 2012, "iso_code": "MT-58", "wiki_data_id": "Q1017348", "created_at": "2019-10-06T08:48:36Z", "updated_at": "2025-11-08T23:08:33Z"}}, {"model": "geodata.geonode", "pk": 123, "fields": {"country": 133, "node_type": 55, "parent": null, "level": null, "name_ru": "Заббар", "name_en": "Żabbar", "name_native": "Żabbar", "latitude": 35.8724715, "longitude": 14.5451354, "timezone": 458, "population": 15648, "iso_code": "MT-64", "wiki_data_id": "Q39518", "created_at": "2019-10-06T08:48:36Z", "updated_at": "2025-11-08T23:08:35Z"}}, {"model": "geodata.geonode", "pk": 124, "fields": {"country": 133, "node_type": 55, "parent": null, "level": null, "name_ru": "Гахак", "name_en": "Għaxaq", "name_native": "Għaxaq", "latitude": 35.8440359, "longitude": 14.516009, "timezone": 458, "population": 5540, "iso_code": "MT-17", "wiki_data_id": "Q426385", "created_at": "2019-10-06T08:48:36Z", "updated_at": "2025-11-08T23:08:38Z"}}, {"model": "geodata.geonode", "pk": 125, "fields": {"country": 133, "node_type": 55, "parent": null, "level": null, "name_ru": "Пембрук", "name_en": "Pembroke", "name_native": "Pembroke", "latitude": 35.9281313, "longitude": 14.4795722, "timezone": 458, "population": null, "iso_code": "MT-40", "wiki_data_id": "Q775756", "created_at": "2019-10-06T08:48:36Z", "updated_at": "2025-10-09T22:54:07Z"}}, {"model": "geodata.geonode", "pk": 126, "fields": {"country": 133, "node_type": 55, "parent": null, "level": null, "name_ru": "Лия", "name_en": "Lija", "name_native": "Rabid", "latitude": 35.901766, "longitude": 14.4476136, "timezone": 458, "population": 3740, "iso_code": "MT-24", "wiki_data_id": "Q782049", "created_at": "2019-10-06T08:48:36Z", "updated_at": "2025-11-08T23:08:42Z"}}, {"model": "geodata.geonode", "pk": 127, "fields": {"country": 133, "node_type": 55, "parent": null, "level": null, "name_ru": "Пьета", "name_en": "Pietà", "name_native": "Kompassjoni", "latitude": 35.892353, "longitude": 14.4934881, "timezone": 458, "population": null, "iso_code": "MT-41", "wiki_data_id": "Q744070", "created_at": "2019-10-06T08:48:36Z", "updated_at": "2025-10-09T22:54:12Z"}}, {"model": "geodata.geonode", "pk": 128, "fields": {"country": 133, "node_type": 55, "parent": null, "level": null, "name_ru": "Марса", "name_en": "Marsa", "name_native": "Marsa", "latitude": 35.882892, "longitude": 14.4944898, "timezone": 458, "population": null, "iso_code": "MT-26", "wiki_data_id": "Q267431", "created_at": "2019-10-06T08:48:36Z", "updated_at": "2025-10-09T22:54:15Z"}}, {"model": "geodata.geonode", "pk": 129, "fields": {"country": 133, "node_type": 55, "parent": null, "level": null, "name_ru": "Фгура", "name_en": "Fgura", "name_native": "Fgura", "latitude": 35.8738269, "longitude": 14.5232901, "timezone": 458, "population": 12449, "iso_code": "MT-08", "wiki_data_id": "Q44388", "created_at": "2019-10-06T08:48:36Z", "updated_at": "2025-11-08T23:08:48Z"}}, {"model": "geodata.geonode", "pk": 130, "fields": {"country": 133, "node_type": 55, "parent": null, "level": null, "name_ru": "Айнсилем", "name_en": "Għajnsielem", "name_native": "Għajnsielem", "latitude": 36.0247966, "longitude": 14.2802961, "timezone": 458, "population": 2931, "iso_code": "MT-13", "wiki_data_id": "Q761675", "created_at": "2019-10-06T08:48:36Z", "updated_at": "2025-11-08T23:08:50Z"}}, {"model": "geodata.geonode", "pk": 131, "fields": {"country": 133, "node_type": 55, "parent": null, "level": null, "name_ru": "Мтарфа", "name_en": "Mtarfa", "name_native": "Mtarfa", "latitude": 35.8895125, "longitude": 14.3951953, "timezone": 458, "population": 2615, "iso_code": "MT-35", "wiki_data_id": "Q656837", "created_at": "2019-10-06T08:48:36Z", "updated_at": "2025-11-08T23:08:51Z"}}, {"model": "geodata.geonode", "pk": 132, "fields": {"country": 133, "node_type": 55, "parent": null, "level": null, "name_ru": "Муншар", "name_en": "Munxar", "name_native": "Munxar", "latitude": 36.0288058, "longitude": 14.2250605, "timezone": 458, "population": 1707, "iso_code": "MT-36", "wiki_data_id": "Q587462", "created_at": "2019-10-06T08:48:36Z", "updated_at": "2025-11-08T23:08:54Z"}}, {"model": "geodata.geonode", "pk": 133, "fields": {"country": 133, "node_type": 55, "parent": null, "level": null, "name_ru": "Надур", "name_en": "Nadur", "name_native": "Nadur", "latitude": 36.0447019, "longitude": 14.2919273, "timezone": 458, "population": 4509, "iso_code": "MT-37", "wiki_data_id": "Q929969", "created_at": "2019-10-06T08:48:36Z", "updated_at": "2025-11-08T23:08:55Z"}}, {"model": "geodata.geonode", "pk": 134, "fields": {"country": 133, "node_type": 55, "parent": null, "level": null, "name_ru": "Фонтана", "name_en": "Fontana", "name_native": "Fontana", "latitude": 36.038744, "longitude": 14.2370014, "timezone": 458, "population": null, "iso_code": "MT-10", "wiki_data_id": "Q1002742", "created_at": "2019-10-06T08:48:36Z", "updated_at": "2025-10-09T22:54:35Z"}}, {"model": "geodata.geonode", "pk": 135, "fields": {"country": 133, "node_type": 55, "parent": null, "level": null, "name_ru": "Жейтун", "name_en": "Żejtun", "name_native": "Żejtun", "latitude": 35.8548714, "longitude": 14.5363969, "timezone": 458, "population": 11386, "iso_code": "MT-67", "wiki_data_id": "Q44392", "created_at": "2019-10-06T08:48:36Z", "updated_at": "2025-11-08T23:09:00Z"}}, {"model": "geodata.geonode", "pk": 136, "fields": {"country": 133, "node_type": 55, "parent": null, "level": null, "name_ru": "Сенглея", "name_en": "Senglea", "name_native": "Senglea", "latitude": 35.8873041, "longitude": 14.5167371, "timezone": 458, "population": 2720, "iso_code": "MT-20", "wiki_data_id": "Q846593", "created_at": "2019-10-06T08:48:36Z", "updated_at": "2025-11-08T23:09:02Z"}}, {"model": "geodata.geonode", "pk": 137, "fields": {"country": 133, "node_type": 55, "parent": null, "level": null, "name_ru": "Марсаскала", "name_en": "Marsaskala", "name_native": "Marsaskala", "latitude": 35.860364, "longitude": 14.5567876, "timezone": 458, "population": 16804, "iso_code": "MT-27", "wiki_data_id": "Q534571", "created_at": "2019-10-06T08:48:36Z", "updated_at": "2025-11-08T23:09:04Z"}}, {"model": "geodata.geonode", "pk": 138, "fields": {"country": 133, "node_type": 55, "parent": null, "level": null, "name_ru": "Коспикуа", "name_en": "Cospicua", "name_native": "Evidenti", "latitude": 35.8806753, "longitude": 14.5218338, "timezone": 458, "population": 5170, "iso_code": "MT-06", "wiki_data_id": "Q757225", "created_at": "2019-10-06T08:48:36Z", "updated_at": "2025-11-08T23:09:05Z"}}, {"model": "geodata.geonode", "pk": 139, "fields": {"country": 133, "node_type": 55, "parent": null, "level": null, "name_ru": "Залив Святого Павла", "name_en": "St. Paul's Bay", "name_native": "Bajja ta ’San Pawl", "latitude": 35.9480742, "longitude": 14.3973929, "timezone": 458, "population": 32042, "iso_code": "MT-51", "wiki_data_id": "Q39521", "created_at": "2019-10-06T08:48:36Z", "updated_at": "2025-11-08T23:09:08Z"}}, {"model": "geodata.geonode", "pk": 140, "fields": {"country": 133, "node_type": 55, "parent": null, "level": null, "name_ru": "Моста", "name_en": "Mosta", "name_native": "Pont", "latitude": 35.9141504, "longitude": 14.4228427, "timezone": 458, "population": 23482, "iso_code": "MT-32", "wiki_data_id": "Q39520", "created_at": "2019-10-06T08:48:36Z", "updated_at": "2025-11-08T23:09:10Z"}}, {"model": "geodata.geonode", "pk": 141, "fields": {"country": 112, "node_type": 75, "parent": null, "level": null, "name_ru": "Мангистау", "name_en": "Mangystau", "name_native": "Маңғыстау", "latitude": 44.4364918, "longitude": 53.7999931, "timezone": 238, "population": 745909, "iso_code": "KZ-47", "wiki_data_id": "Q238931", "created_at": "2019-10-06T08:48:36Z", "updated_at": "2025-11-08T23:09:13Z"}}, {"model": "geodata.geonode", "pk": 142, "fields": {"country": 112, "node_type": 75, "parent": null, "level": null, "name_ru": "Кызылорда", "name_en": "Kyzylorda", "name_native": "Қызылорда", "latitude": 45.2058853, "longitude": 63.9155202, "timezone": 238, "population": 354800, "iso_code": "KZ-43", "wiki_data_id": "Q485322", "created_at": "2019-10-06T08:48:36Z", "updated_at": "2025-11-08T23:09:15Z"}}, {"model": "geodata.geonode", "pk": 143, "fields": {"country": 112, "node_type": 25, "parent": null, "level": null, "name_ru": "Алматы", "name_en": "Almaty", "name_native": "Алматы", "latitude": 43.6136955, "longitude": 77.1358136, "timezone": 238, "population": null, "iso_code": "KZ-75", "wiki_data_id": "Q35493", "created_at": "2019-10-06T08:48:36Z", "updated_at": "2025-10-09T22:55:31Z"}}, {"model": "geodata.geonode", "pk": 144, "fields": {"country": 112, "node_type": 75, "parent": null, "level": null, "name_ru": "Северный Казахстан", "name_en": "North Kazakhstan", "name_native": "Солтүстік Қазақстан", "latitude": 53.9797171, "longitude": 69.0450902, "timezone": 238, "population": 522171, "iso_code": "KZ-59", "wiki_data_id": "Q485088", "created_at": "2019-10-06T08:48:36Z", "updated_at": "2025-11-08T23:09:19Z"}}, {"model": "geodata.geonode", "pk": 145, "fields": {"country": 112, "node_type": 75, "parent": null, "level": null, "name_ru": "Акмола", "name_en": "Akmola", "name_native": "Ақмола", "latitude": 51.8742347, "longitude": 69.8582132, "timezone": 238, "population": null, "iso_code": "KZ-11", "wiki_data_id": "Q485056", "created_at": "2019-10-06T08:48:36Z", "updated_at": "2025-10-09T22:55:10Z"}}, {"model": "geodata.geonode", "pk": 146, "fields": {"country": 112, "node_type": 75, "parent": null, "level": null, "name_ru": "Павлодар", "name_en": "Pavlodar", "name_native": "Павлодар", "latitude": 52.2857573, "longitude": 76.9455035, "timezone": 238, "population": null, "iso_code": "KZ-55", "wiki_data_id": "Q486144", "created_at": "2019-10-06T08:48:36Z", "updated_at": "2025-10-09T22:55:13Z"}}, {"model": "geodata.geonode", "pk": 147, "fields": {"country": 112, "node_type": 75, "parent": null, "level": null, "name_ru": "Джамбул", "name_en": "Jambyl", "name_native": "Жамбыл", "latitude": 44.4168463, "longitude": 72.134166, "timezone": 238, "population": 1209665, "iso_code": "KZ-31", "wiki_data_id": "Q486657", "created_at": "2019-10-06T08:48:36Z", "updated_at": "2025-11-08T23:09:26Z"}}, {"model": "geodata.geonode", "pk": 148, "fields": {"country": 112, "node_type": 75, "parent": null, "level": null, "name_ru": "Западный Казахстан", "name_en": "West Kazakhstan", "name_native": "Батыс Қазақстан", "latitude": 49.5568479, "longitude": 50.2227409, "timezone": 300, "population": null, "iso_code": "KZ-27", "wiki_data_id": "Q486007", "created_at": "2019-10-06T08:48:36Z", "updated_at": "2025-10-19T03:56:39Z"}}, {"model": "geodata.geonode", "pk": 149, "fields": {"country": 112, "node_type": 75, "parent": null, "level": null, "name_ru": "Туркестан", "name_en": "Turkistan", "name_native": "Түркістан", "latitude": 43.3019457, "longitude": 68.2703698, "timezone": 238, "population": null, "iso_code": "KZ-61", "wiki_data_id": "Q815330", "created_at": "2019-10-06T08:48:36Z", "updated_at": "2025-10-09T22:55:23Z"}}, {"model": "geodata.geonode", "pk": 150, "fields": {"country": 112, "node_type": 75, "parent": null, "level": null, "name_ru": "Караганда", "name_en": "Karaganda", "name_native": "Қарағанды", "latitude": 49.1767322, "longitude": 74.1811272, "timezone": 238, "population": 497777, "iso_code": "KZ-35", "wiki_data_id": "Q485429", "created_at": "2019-10-06T08:48:36Z", "updated_at": "2025-11-08T23:09:33Z"}}, {"model": "geodata.geonode", "pk": 151, "fields": {"country": 112, "node_type": 75, "parent": null, "level": null, "name_ru": "Актобе", "name_en": "Aktobe", "name_native": "Ақтөбе", "latitude": 48.2552772, "longitude": 59.4499172, "timezone": 238, "population": null, "iso_code": "KZ-15", "wiki_data_id": "Q485437", "created_at": "2019-10-06T08:48:36Z", "updated_at": "2025-10-19T03:56:39Z"}}, {"model": "geodata.geonode", "pk": 152, "fields": {"country": 112, "node_type": 75, "parent": null, "level": null, "name_ru": "Атырау", "name_en": "Atyrau", "name_native": "Атырау", "latitude": 47.1076188, "longitude": 51.914133, "timezone": 245, "population": null, "iso_code": "KZ-23", "wiki_data_id": "Q427658", "created_at": "2019-10-06T08:48:36Z", "updated_at": "2025-10-19T03:56:39Z"}}, {"model": "geodata.geonode", "pk": 153, "fields": {"country": 112, "node_type": 75, "parent": null, "level": null, "name_ru": "Восточный Казахстан", "name_en": "East Kazakhstan", "name_native": "Шығыс Қазақстан", "latitude": 49.097376, "longitude": 84.7657817, "timezone": 238, "population": 723967, "iso_code": "KZ-63", "wiki_data_id": "Q36156", "created_at": "2019-10-06T08:48:36Z", "updated_at": "2025-11-08T23:09:42Z"}}, {"model": "geodata.geonode", "pk": 154, "fields": {"country": 112, "node_type": 25, "parent": null, "level": null, "name_ru": "Астана", "name_en": "Astana", "name_native": "Астана", "latitude": 51.1282205, "longitude": 71.4306682, "timezone": 238, "population": null, "iso_code": "KZ-71", "wiki_data_id": "Q1520", "created_at": "2019-10-06T08:48:36Z", "updated_at": "2025-10-09T22:55:40Z"}}, {"model": "geodata.geonode", "pk": 155, "fields": {"country": 112, "node_type": 75, "parent": null, "level": null, "name_ru": "Костанай", "name_en": "Kostanay", "name_native": "Қостанай", "latitude": 52.0615626, "longitude": 62.9372689, "timezone": 238, "population": 214916, "iso_code": "KZ-39", "wiki_data_id": "Q485605", "created_at": "2019-10-06T08:48:36Z", "updated_at": "2025-11-08T23:09:45Z"}}, {"model": "geodata.geonode", "pk": 156, "fields": {"country": 113, "node_type": 31, "parent": null, "level": null, "name_ru": "Какамега", "name_en": "Kakamega", "name_native": "Kakamega", "latitude": 0.2833, "longitude": 34.75, "timezone": 44, "population": null, "iso_code": "KE-11", "wiki_data_id": "Q1721867", "created_at": "2019-10-06T08:48:36Z", "updated_at": "2025-10-09T22:55:45Z"}}, {"model": "geodata.geonode", "pk": 157, "fields": {"country": 113, "node_type": 31, "parent": null, "level": null, "name_ru": "Кисии", "name_en": "Kisii", "name_native": "Kisii", "latitude": -0.6694119, "longitude": 34.7677944, "timezone": 44, "population": null, "iso_code": "KE-16", "wiki_data_id": "Q1743730", "created_at": "2019-10-06T08:48:36Z", "updated_at": "2025-10-09T22:55:49Z"}}, {"model": "geodata.geonode", "pk": 158, "fields": {"country": 113, "node_type": 31, "parent": null, "level": null, "name_ru": "Бусия", "name_en": "Busia", "name_native": "Busia", "latitude": 0.3712048, "longitude": 34.2647952, "timezone": 44, "population": null, "iso_code": "KE-04", "wiki_data_id": "Q1017519", "created_at": "2019-10-06T08:48:36Z", "updated_at": "2025-10-09T22:55:53Z"}}, {"model": "geodata.geonode", "pk": 159, "fields": {"country": 113, "node_type": 31, "parent": null, "level": null, "name_ru": "Эмбу", "name_en": "Embu", "name_native": "Embu", "latitude": -0.5359479, "longitude": 37.6652884, "timezone": 44, "population": null, "iso_code": "KE-06", "wiki_data_id": "Q1335242", "created_at": "2019-10-06T08:48:36Z", "updated_at": "2025-10-09T22:55:56Z"}}, {"model": "geodata.geonode", "pk": 160, "fields": {"country": 113, "node_type": 31, "parent": null, "level": null, "name_ru": "Лайкипия", "name_en": "Laikipia", "name_native": "Laikipia", "latitude": 0.2858452, "longitude": 36.8257711, "timezone": 44, "population": 518560, "iso_code": "KE-20", "wiki_data_id": "Q1800699", "created_at": "2019-10-06T08:48:36Z", "updated_at": "2025-11-08T23:09:56Z"}}, {"model": "geodata.geonode", "pk": 161, "fields": {"country": 113, "node_type": 31, "parent": null, "level": null, "name_ru": "Нанди", "name_en": "Nandi", "name_native": "Nandi", "latitude": 0.2253932, "longitude": 35.1244929, "timezone": 44, "population": null, "iso_code": "KE-32", "wiki_data_id": "Q1964569", "created_at": "2019-10-06T08:48:36Z", "updated_at": "2025-10-09T22:56:03Z"}}, {"model": "geodata.geonode", "pk": 162, "fields": {"country": 113, "node_type": 31, "parent": null, "level": null, "name_ru": "Ламу", "name_en": "Lamu", "name_native": "Lamu", "latitude": -2.0645209, "longitude": 40.7280992, "timezone": 44, "population": 25385, "iso_code": "KE-21", "wiki_data_id": "Q1951652", "created_at": "2019-10-06T08:48:36Z", "updated_at": "2025-11-08T23:09:59Z"}}, {"model": "geodata.geonode", "pk": 163, "fields": {"country": 113, "node_type": 31, "parent": null, "level": null, "name_ru": "Кириньяга", "name_en": "Kirinyaga", "name_native": "Kirinyaga", "latitude": -0.468878, "longitude": 37.3027681, "timezone": 44, "population": null, "iso_code": "KE-15", "wiki_data_id": "Q2230311", "created_at": "2019-10-06T08:48:36Z", "updated_at": "2025-10-09T22:56:09Z"}}, {"model": "geodata.geonode", "pk": 164, "fields": {"country": 113, "node_type": 31, "parent": null, "level": null, "name_ru": "Бунгома", "name_en": "Bungoma", "name_native": "Bungoma", "latitude": 0.5695252, "longitude": 34.5583766, "timezone": 44, "population": 68031, "iso_code": "KE-03", "wiki_data_id": "Q2928204", "created_at": "2019-10-06T08:48:36Z", "updated_at": "2025-11-08T23:10:03Z"}}, {"model": "geodata.geonode", "pk": 165, "fields": {"country": 113, "node_type": 31, "parent": null, "level": null, "name_ru": "Уасин Гишу", "name_en": "Uasin Gishu", "name_native": "Uasin Gishu", "latitude": 0.4771938, "longitude": 35.3050597, "timezone": 44, "population": 1163186, "iso_code": "KE-44", "wiki_data_id": "Q1121429", "created_at": "2019-10-06T08:48:36Z", "updated_at": "2025-11-08T23:10:06Z"}}, {"model": "geodata.geonode", "pk": 166, "fields": {"country": 113, "node_type": 31, "parent": null, "level": null, "name_ru": "Исиоло", "name_en": "Isiolo", "name_native": "Isiolo", "latitude": 1.0060601, "longitude": 38.7478954, "timezone": 44, "population": 98000, "iso_code": "KE-09", "wiki_data_id": "Q1499046", "created_at": "2019-10-06T08:48:36Z", "updated_at": "2025-11-08T23:10:08Z"}}, {"model": "geodata.geonode", "pk": 167, "fields": {"country": 113, "node_type": 31, "parent": null, "level": null, "name_ru": "Кисуму", "name_en": "Kisumu", "name_native": "Kisumu", "latitude": -0.1029109, "longitude": 34.7541761, "timezone": 44, "population": null, "iso_code": "KE-17", "wiki_data_id": "Q1743809", "created_at": "2019-10-06T08:48:36Z", "updated_at": "2025-10-09T22:56:22Z"}}, {"model": "geodata.geonode", "pk": 168, "fields": {"country": 113, "node_type": 31, "parent": null, "level": null, "name_ru": "Квале", "name_en": "Kwale", "name_native": "Kwale", "latitude": -4.1836067, "longitude": 39.105095, "timezone": 44, "population": 10063, "iso_code": "KE-19", "wiki_data_id": "Q952571", "created_at": "2019-10-06T08:48:36Z", "updated_at": "2025-11-08T23:10:12Z"}}, {"model": "geodata.geonode", "pk": 169, "fields": {"country": 113, "node_type": 31, "parent": null, "level": null, "name_ru": "Килифи", "name_en": "Kilifi", "name_native": "Kilifi", "latitude": -3.6333, "longitude": 39.85, "timezone": 44, "population": 122899, "iso_code": "KE-14", "wiki_data_id": "Q1741307", "created_at": "2019-10-06T08:48:36Z", "updated_at": "2025-11-08T23:10:14Z"}}, {"model": "geodata.geonode", "pk": 170, "fields": {"country": 113, "node_type": 31, "parent": null, "level": null, "name_ru": "Нарок", "name_en": "Narok", "name_native": "Nasko", "latitude": -1.0886931, "longitude": 35.8714916, "timezone": 44, "population": null, "iso_code": "KE-33", "wiki_data_id": "Q1852220", "created_at": "2019-10-06T08:48:36Z", "updated_at": "2025-10-09T22:56:31Z"}}, {"model": "geodata.geonode", "pk": 171, "fields": {"country": 113, "node_type": 31, "parent": null, "level": null, "name_ru": "Таита–Тавета", "name_en": "Taita–Taveta", "name_native": "Taita -Taveta", "latitude": -3.4178355, "longitude": 38.3670676, "timezone": 44, "population": null, "iso_code": "KE-39", "wiki_data_id": "Q7193788", "created_at": "2019-10-06T08:48:36Z", "updated_at": "2025-10-09T22:56:35Z"}}, {"model": "geodata.geonode", "pk": 172, "fields": {"country": 113, "node_type": 31, "parent": null, "level": null, "name_ru": "Муранга", "name_en": "Murang'a", "name_native": "cheap", "latitude": -0.8317087, "longitude": 37.0049216, "timezone": 44, "population": null, "iso_code": "KE-29", "wiki_data_id": "Q1781723", "created_at": "2019-10-06T08:48:36Z", "updated_at": "2025-10-09T22:56:38Z"}}, {"model": "geodata.geonode", "pk": 173, "fields": {"country": 113, "node_type": 31, "parent": null, "level": null, "name_ru": "Ньери", "name_en": "Nyeri", "name_native": "Nyeri", "latitude": -0.4192962, "longitude": 36.9517005, "timezone": 44, "population": 140338, "iso_code": "KE-36", "wiki_data_id": "Q749665", "created_at": "2019-10-06T08:48:36Z", "updated_at": "2025-11-08T23:10:22Z"}}, {"model": "geodata.geonode", "pk": 174, "fields": {"country": 113, "node_type": 31, "parent": null, "level": null, "name_ru": "Баринго", "name_en": "Baringo", "name_native": "Baringo", "latitude": 0.71401, "longitude": 36.0172739, "timezone": 44, "population": null, "iso_code": "KE-01", "wiki_data_id": "Q808201", "created_at": "2019-10-06T08:48:36Z", "updated_at": "2025-10-09T22:56:44Z"}}, {"model": "geodata.geonode", "pk": 175, "fields": {"country": 113, "node_type": 31, "parent": null, "level": null, "name_ru": "Ваджир", "name_en": "Wajir", "name_native": "Marin", "latitude": 1.7504651, "longitude": 40.0594959, "timezone": 44, "population": 130116, "iso_code": "KE-46", "wiki_data_id": "Q1852209", "created_at": "2019-10-06T08:48:36Z", "updated_at": "2025-11-08T23:10:27Z"}}, {"model": "geodata.geonode", "pk": 176, "fields": {"country": 113, "node_type": 31, "parent": null, "level": null, "name_ru": "Транс Нзоя", "name_en": "Trans Nzoia", "name_native": "Trans Nzoia", "latitude": 1.0454582, "longitude": 34.979044, "timezone": 44, "population": 990341, "iso_code": "KE-42", "wiki_data_id": "Q1278653", "created_at": "2019-10-06T08:48:36Z", "updated_at": "2025-11-08T23:10:29Z"}}, {"model": "geodata.geonode", "pk": 177, "fields": {"country": 113, "node_type": 31, "parent": null, "level": null, "name_ru": "Мачакос", "name_en": "Machakos", "name_native": "Machakos", "latitude": -1.5176837, "longitude": 37.2634146, "timezone": 44, "population": null, "iso_code": "KE-22", "wiki_data_id": "Q1882639", "created_at": "2019-10-06T08:48:36Z", "updated_at": "2025-10-09T22:56:54Z"}}, {"model": "geodata.geonode", "pk": 178, "fields": {"country": 113, "node_type": 31, "parent": null, "level": null, "name_ru": "Тарака-Нити", "name_en": "Tharaka-Nithi", "name_native": "Tharaka-NITHI", "latitude": -0.1937081, "longitude": 37.961405, "timezone": 44, "population": 393177, "iso_code": "KE-41", "wiki_data_id": "Q2189432", "created_at": "2019-10-06T08:48:36Z", "updated_at": "2025-11-08T23:10:34Z"}}, {"model": "geodata.geonode", "pk": 179, "fields": {"country": 113, "node_type": 31, "parent": null, "level": null, "name_ru": "Сиая", "name_en": "Siaya", "name_native": "Siaya", "latitude": -0.0604013, "longitude": 34.200135, "timezone": 44, "population": null, "iso_code": "KE-38", "wiki_data_id": "Q3482913", "created_at": "2019-10-06T08:48:36Z", "updated_at": "2025-10-09T22:57:01Z"}}, {"model": "geodata.geonode", "pk": 180, "fields": {"country": 113, "node_type": 31, "parent": null, "level": null, "name_ru": "Мандера", "name_en": "Mandera", "name_native": "Mandera", "latitude": 3.2285332, "longitude": 40.7056153, "timezone": 44, "population": 114718, "iso_code": "KE-24", "wiki_data_id": "Q1477874", "created_at": "2019-10-06T08:48:36Z", "updated_at": "2025-11-08T23:10:37Z"}}, {"model": "geodata.geonode", "pk": 181, "fields": {"country": 113, "node_type": 31, "parent": null, "level": null, "name_ru": "Макуэни", "name_en": "Makueni", "name_native": "Makueni", "latitude": -2.257093, "longitude": 37.8771715, "timezone": 44, "population": 987653, "iso_code": "KE-23", "wiki_data_id": "Q473717", "created_at": "2019-10-06T08:48:36Z", "updated_at": "2025-11-08T23:10:40Z"}}, {"model": "geodata.geonode", "pk": 182, "fields": {"country": 113, "node_type": 31, "parent": null, "level": null, "name_ru": "Мигори", "name_en": "Migori", "name_native": "Migori", "latitude": -1.0192237, "longitude": 34.3095427, "timezone": 44, "population": null, "iso_code": "KE-27", "wiki_data_id": "Q429955", "created_at": "2019-10-06T08:48:36Z", "updated_at": "2025-10-09T22:57:11Z"}}, {"model": "geodata.geonode", "pk": 183, "fields": {"country": 113, "node_type": 31, "parent": null, "level": null, "name_ru": "Город Найроби", "name_en": "Nairobi City", "name_native": "Nairobi City", "latitude": -1.2920659, "longitude": 36.8219462, "timezone": 44, "population": null, "iso_code": "KE-30", "wiki_data_id": "Q3870", "created_at": "2019-10-06T08:48:36Z", "updated_at": "2025-10-09T22:57:13Z"}}, {"model": "geodata.geonode", "pk": 184, "fields": {"country": 113, "node_type": 31, "parent": null, "level": null, "name_ru": "Ньяндаруа", "name_en": "Nyandarua", "name_native": "Nyandarua", "latitude": -0.3917064, "longitude": 36.4977397, "timezone": 44, "population": 638289, "iso_code": "KE-35", "wiki_data_id": "Q1714352", "created_at": "2019-10-06T08:48:36Z", "updated_at": "2025-11-08T23:10:46Z"}}, {"model": "geodata.geonode", "pk": 185, "fields": {"country": 113, "node_type": 31, "parent": null, "level": null, "name_ru": "Керичо", "name_en": "Kericho", "name_native": "Kericho", "latitude": -0.3666, "longitude": 35.2833, "timezone": 44, "population": null, "iso_code": "KE-12", "wiki_data_id": "Q1739252", "created_at": "2019-10-06T08:48:36Z", "updated_at": "2025-10-09T22:57:20Z"}}, {"model": "geodata.geonode", "pk": 186, "fields": {"country": 113, "node_type": 31, "parent": null, "level": null, "name_ru": "Марсабит", "name_en": "Marsabit", "name_native": "Marsabit", "latitude": 2.3380612, "longitude": 37.991639, "timezone": 44, "population": null, "iso_code": "KE-25", "wiki_data_id": "Q1323683", "created_at": "2019-10-06T08:48:36Z", "updated_at": "2025-10-09T22:57:22Z"}}, {"model": "geodata.geonode", "pk": 187, "fields": {"country": 113, "node_type": 31, "parent": null, "level": null, "name_ru": "Хома Бэй", "name_en": "Homa Bay", "name_native": "Homa Bay", "latitude": -0.5639601, "longitude": 34.3187819, "timezone": 44, "population": 44949, "iso_code": "KE-08", "wiki_data_id": "Q1625834", "created_at": "2019-10-06T08:48:36Z", "updated_at": "2025-11-08T23:10:52Z"}}, {"model": "geodata.geonode", "pk": 188, "fields": {"country": 113, "node_type": 31, "parent": null, "level": null, "name_ru": "Гарисса", "name_en": "Garissa", "name_native": "In the gar", "latitude": -0.4532293, "longitude": 39.6460988, "timezone": 44, "population": null, "iso_code": "KE-07", "wiki_data_id": "Q1494292", "created_at": "2019-10-06T08:48:36Z", "updated_at": "2025-10-09T22:57:29Z"}}, {"model": "geodata.geonode", "pk": 189, "fields": {"country": 113, "node_type": 31, "parent": null, "level": null, "name_ru": "Каджиадо", "name_en": "Kajiado", "name_native": "Kajiado", "latitude": -2.121717, "longitude": 36.786255, "timezone": 44, "population": 24678, "iso_code": "KE-10", "wiki_data_id": "Q285072", "created_at": "2019-10-06T08:48:36Z", "updated_at": "2025-11-08T23:10:55Z"}}, {"model": "geodata.geonode", "pk": 190, "fields": {"country": 113, "node_type": 31, "parent": null, "level": null, "name_ru": "Меру", "name_en": "Meru", "name_native": "Meru", "latitude": 0.2254509, "longitude": 37.7772624, "timezone": 44, "population": null, "iso_code": "KE-26", "wiki_data_id": "Q15045704", "created_at": "2019-10-06T08:48:36Z", "updated_at": "2025-10-09T22:57:35Z"}}, {"model": "geodata.geonode", "pk": 191, "fields": {"country": 113, "node_type": 31, "parent": null, "level": null, "name_ru": "Киамбу", "name_en": "Kiambu", "name_native": "Kiambu", "latitude": -1.036395, "longitude": 36.8431312, "timezone": 44, "population": null, "iso_code": "KE-13", "wiki_data_id": "Q2575594", "created_at": "2019-10-06T08:48:36Z", "updated_at": "2025-10-09T22:57:38Z"}}, {"model": "geodata.geonode", "pk": 192, "fields": {"country": 113, "node_type": 31, "parent": null, "level": null, "name_ru": "Момбаса", "name_en": "Mombasa", "name_native": "Mombasa", "latitude": -4.05052, "longitude": 39.667169, "timezone": 44, "population": null, "iso_code": "KE-28", "wiki_data_id": "Q1112885", "created_at": "2019-10-06T08:48:36Z", "updated_at": "2025-10-09T22:57:41Z"}}, {"model": "geodata.geonode", "pk": 193, "fields": {"country": 113, "node_type": 31, "parent": null, "level": null, "name_ru": "Эльгейо-Мараквет", "name_en": "Elgeyo-Marakwet", "name_native": "Elgeyo-Marakwet", "latitude": 0.7422191, "longitude": 35.5618083, "timezone": 44, "population": 454480, "iso_code": "KE-05", "wiki_data_id": "Q15216433", "created_at": "2019-10-06T08:48:36Z", "updated_at": "2025-11-08T23:11:03Z"}}, {"model": "geodata.geonode", "pk": 194, "fields": {"country": 113, "node_type": 31, "parent": null, "level": null, "name_ru": "Вихига", "name_en": "Vihiga", "name_native": "Whip", "latitude": 0.0767553, "longitude": 34.7077665, "timezone": 44, "population": 118696, "iso_code": "KE-45", "wiki_data_id": "Q1313202", "created_at": "2019-10-06T08:48:36Z", "updated_at": "2025-11-08T23:11:04Z"}}, {"model": "geodata.geonode", "pk": 195, "fields": {"country": 113, "node_type": 31, "parent": null, "level": null, "name_ru": "Накуру", "name_en": "Nakuru", "name_native": "Nakuru", "latitude": -0.2802724, "longitude": 36.0712048, "timezone": 44, "population": null, "iso_code": "KE-31", "wiki_data_id": "Q1852202", "created_at": "2019-10-06T08:48:36Z", "updated_at": "2025-10-09T22:57:50Z"}}, {"model": "geodata.geonode", "pk": 196, "fields": {"country": 113, "node_type": 31, "parent": null, "level": null, "name_ru": "Река Тана", "name_en": "Tana River", "name_native": "His river", "latitude": -1.5365119, "longitude": 39.5508374, "timezone": 44, "population": null, "iso_code": "KE-40", "wiki_data_id": "Q383150", "created_at": "2019-10-06T08:48:36Z", "updated_at": "2025-10-09T22:57:53Z"}}, {"model": "geodata.geonode", "pk": 197, "fields": {"country": 113, "node_type": 31, "parent": null, "level": null, "name_ru": "Туркана", "name_en": "Turkana", "name_native": "Turkana", "latitude": 2.7655657, "longitude": 35.5977228, "timezone": 44, "population": null, "iso_code": "KE-43", "wiki_data_id": "Q1633078", "created_at": "2019-10-06T08:48:36Z", "updated_at": "2025-10-09T22:57:57Z"}}, {"model": "geodata.geonode", "pk": 198, "fields": {"country": 113, "node_type": 31, "parent": null, "level": null, "name_ru": "Самбуру", "name_en": "Samburu", "name_native": "Samburu", "latitude": 1.5394463, "longitude": 36.942166, "timezone": 44, "population": null, "iso_code": "KE-37", "wiki_data_id": "Q2096419", "created_at": "2019-10-06T08:48:36Z", "updated_at": "2025-10-09T22:58:00Z"}}, {"model": "geodata.geonode", "pk": 199, "fields": {"country": 113, "node_type": 31, "parent": null, "level": null, "name_ru": "Западный Покот", "name_en": "West Pokot", "name_native": "West Pokot", "latitude": 1.8798608, "longitude": 35.210613, "timezone": 44, "population": 621241, "iso_code": "KE-47", "wiki_data_id": "Q590860", "created_at": "2019-10-06T08:48:36Z", "updated_at": "2025-11-08T23:11:15Z"}}, {"model": "geodata.geonode", "pk": 200, "fields": {"country": 113, "node_type": 31, "parent": null, "level": null, "name_ru": "Ньямира", "name_en": "Nyamira", "name_native": "Nyamira", "latitude": -0.6517907, "longitude": 34.934167, "timezone": 44, "population": null, "iso_code": "KE-34", "wiki_data_id": "Q1569613", "created_at": "2019-10-06T08:48:36Z", "updated_at": "2025-10-09T22:58:06Z"}}, {"model": "geodata.geonode", "pk": 201, "fields": {"country": 113, "node_type": 31, "parent": null, "level": null, "name_ru": "Бомет", "name_en": "Bomet", "name_native": "Bomet", "latitude": -0.7196054, "longitude": 35.2399625, "timezone": 44, "population": 110963, "iso_code": "KE-02", "wiki_data_id": "Q891952", "created_at": "2019-10-06T08:48:36Z", "updated_at": "2025-11-08T23:11:19Z"}}, {"model": "geodata.geonode", "pk": 202, "fields": {"country": 113, "node_type": 31, "parent": null, "level": null, "name_ru": "Китуи", "name_en": "Kitui", "name_native": "Kitui", "latitude": -1.5642219, "longitude": 38.3728116, "timezone": 44, "population": 29062, "iso_code": "KE-18", "wiki_data_id": "Q1722597", "created_at": "2019-10-06T08:48:36Z", "updated_at": "2025-11-08T23:11:21Z"}}, {"model": "geodata.geonode", "pk": 203, "fields": {"country": 7, "node_type": 73, "parent": null, "level": null, "name_ru": "Бие", "name_en": "Bié", "name_native": "Bié", "latitude": -12.2630485, "longitude": 17.4967812, "timezone": 35, "population": null, "iso_code": "AO-BIE", "wiki_data_id": "Q213977", "created_at": "2019-10-06T08:48:36Z", "updated_at": "2025-10-09T22:58:16Z"}}, {"model": "geodata.geonode", "pk": 204, "fields": {"country": 7, "node_type": 73, "parent": null, "level": null, "name_ru": "Уамбо", "name_en": "Huambo", "name_native": "Huambo", "latitude": -12.6076318, "longitude": 15.7411039, "timezone": 35, "population": null, "iso_code": "AO-HUA", "wiki_data_id": "Q218848", "created_at": "2019-10-06T08:48:36Z", "updated_at": "2025-10-09T22:58:19Z"}}, {"model": "geodata.geonode", "pk": 205, "fields": {"country": 7, "node_type": 73, "parent": null, "level": null, "name_ru": "Заир", "name_en": "Zaire", "name_native": "Zaire", "latitude": -6.6925131, "longitude": 13.5293029, "timezone": 35, "population": null, "iso_code": "AO-ZAI", "wiki_data_id": "Q196674", "created_at": "2019-10-06T08:48:36Z", "updated_at": "2025-10-09T22:58:21Z"}}, {"model": "geodata.geonode", "pk": 206, "fields": {"country": 7, "node_type": 73, "parent": null, "level": null, "name_ru": "Кунене", "name_en": "Cunene", "name_native": "Cunene", "latitude": -16.5568536, "longitude": 15.7867319, "timezone": 35, "population": null, "iso_code": "AO-CNN", "wiki_data_id": "Q216987", "created_at": "2019-10-06T08:48:36Z", "updated_at": "2025-10-09T22:58:24Z"}}, {"model": "geodata.geonode", "pk": 207, "fields": {"country": 7, "node_type": 73, "parent": null, "level": null, "name_ru": "Кванза", "name_en": "Cuanza", "name_native": "Quanza", "latitude": -10.7707527, "longitude": 15.0975712, "timezone": 35, "population": null, "iso_code": "AO-CUS", "wiki_data_id": "Q216998", "created_at": "2019-10-06T08:48:36Z", "updated_at": "2025-10-09T22:58:28Z"}}, {"model": "geodata.geonode", "pk": 208, "fields": {"country": 7, "node_type": 73, "parent": null, "level": null, "name_ru": "Кванза Норте", "name_en": "Cuanza Norte", "name_native": "Cuanza Norte", "latitude": -9.0296752, "longitude": 15.0926324, "timezone": 35, "population": 443386, "iso_code": "AO-CNO", "wiki_data_id": "Q216834", "created_at": "2019-10-06T08:48:36Z", "updated_at": "2025-11-08T23:11:32Z"}}, {"model": "geodata.geonode", "pk": 209, "fields": {"country": 7, "node_type": 73, "parent": null, "level": null, "name_ru": "Бенгела", "name_en": "Benguela", "name_native": "Benguela", "latitude": -12.9104657, "longitude": 14.0356608, "timezone": 35, "population": 561775, "iso_code": "AO-BGU", "wiki_data_id": "Q212786", "created_at": "2019-10-06T08:48:36Z", "updated_at": "2025-11-08T23:11:34Z"}}, {"model": "geodata.geonode", "pk": 210, "fields": {"country": 7, "node_type": 73, "parent": null, "level": null, "name_ru": "Мошико", "name_en": "Moxico", "name_native": "Moxico", "latitude": -12.7287195, "longitude": 21.2737637, "timezone": 35, "population": null, "iso_code": "AO-MOX", "wiki_data_id": "Q173988", "created_at": "2019-10-06T08:48:36Z", "updated_at": "2025-10-09T22:58:37Z"}}, {"model": "geodata.geonode", "pk": 211, "fields": {"country": 7, "node_type": 73, "parent": null, "level": null, "name_ru": "Лунда Сул", "name_en": "Lunda Sul", "name_native": "Lunda Sul", "latitude": -10.1473779, "longitude": 20.9907756, "timezone": 35, "population": 537587, "iso_code": "AO-LSU", "wiki_data_id": "Q219648", "created_at": "2019-10-06T08:48:36Z", "updated_at": "2025-11-08T23:11:39Z"}}, {"model": "geodata.geonode", "pk": 212, "fields": {"country": 7, "node_type": 73, "parent": null, "level": null, "name_ru": "Бенго", "name_en": "Bengo", "name_native": "Porta-malas", "latitude": -8.3196672, "longitude": 13.8656195, "timezone": 35, "population": null, "iso_code": "AO-BGO", "wiki_data_id": "Q191299", "created_at": "2019-10-06T08:48:36Z", "updated_at": "2025-10-09T22:58:43Z"}}, {"model": "geodata.geonode", "pk": 213, "fields": {"country": 7, "node_type": 73, "parent": null, "level": null, "name_ru": "Луанда", "name_en": "Luanda", "name_native": "Luanda", "latitude": -8.8315747, "longitude": 13.24797, "timezone": 35, "population": null, "iso_code": "AO-LUA", "wiki_data_id": "Q190066", "created_at": "2019-10-06T08:48:36Z", "updated_at": "2025-10-09T22:58:46Z"}}, {"model": "geodata.geonode", "pk": 214, "fields": {"country": 7, "node_type": 73, "parent": null, "level": null, "name_ru": "Лунда Норте", "name_en": "Lunda Norte", "name_native": "Lunda Norte", "latitude": -8.5088253, "longitude": 19.7538618, "timezone": 35, "population": 862566, "iso_code": "AO-LNO", "wiki_data_id": "Q214221", "created_at": "2019-10-06T08:48:36Z", "updated_at": "2025-11-08T23:11:46Z"}}, {"model": "geodata.geonode", "pk": 215, "fields": {"country": 7, "node_type": 73, "parent": null, "level": null, "name_ru": "Уиже", "name_en": "Uíge", "name_native": "Uíge", "latitude": -6.9516802, "longitude": 15.4799164, "timezone": 35, "population": 616605, "iso_code": "AO-UIG", "wiki_data_id": "Q216972", "created_at": "2019-10-06T08:48:36Z", "updated_at": "2025-11-08T23:11:48Z"}}, {"model": "geodata.geonode", "pk": 216, "fields": {"country": 7, "node_type": 73, "parent": null, "level": null, "name_ru": "Уила", "name_en": "Huíla", "name_native": "Huíla", "latitude": -14.6957808, "longitude": 15.0976293, "timezone": 35, "population": null, "iso_code": "AO-HUI", "wiki_data_id": "Q214572", "created_at": "2019-10-06T08:48:36Z", "updated_at": "2025-10-09T22:58:56Z"}}, {"model": "geodata.geonode", "pk": 217, "fields": {"country": 7, "node_type": 73, "parent": null, "level": null, "name_ru": "Квандо Кубанго", "name_en": "Cuando Cubango", "name_native": "Quando Cubango", "latitude": -16.0457694, "longitude": 19.5621532, "timezone": 35, "population": 534002, "iso_code": "AO-CCU", "wiki_data_id": "Q215268", "created_at": "2019-10-06T08:48:36Z", "updated_at": "2025-11-08T23:11:53Z"}}, {"model": "geodata.geonode", "pk": 218, "fields": {"country": 7, "node_type": 73, "parent": null, "level": null, "name_ru": "Маланже", "name_en": "Malanje", "name_native": "Malanje", "latitude": -9.535332, "longitude": 16.9364293, "timezone": 35, "population": 604215, "iso_code": "AO-MAL", "wiki_data_id": "Q219072", "created_at": "2019-10-06T08:48:36Z", "updated_at": "2025-11-08T23:11:54Z"}}, {"model": "geodata.geonode", "pk": 219, "fields": {"country": 7, "node_type": 73, "parent": null, "level": null, "name_ru": "Кабинда", "name_en": "Cabinda", "name_native": "Cabinda", "latitude": -5.056395, "longitude": 12.3211749, "timezone": 35, "population": null, "iso_code": "AO-CAB", "wiki_data_id": "Q168787", "created_at": "2019-10-06T08:48:36Z", "updated_at": "2025-10-09T22:59:06Z"}}, {"model": "geodata.geonode", "pk": 220, "fields": {"country": 25, "node_type": 35, "parent": null, "level": null, "name_ru": "Гаса", "name_en": "Gasa ", "name_native": "Gasa ", "latitude": 27.9190875, "longitude": 89.7875318, "timezone": 322, "population": null, "iso_code": "BT-GA", "wiki_data_id": "Q578294", "created_at": "2019-10-06T08:48:36Z", "updated_at": "2025-10-09T22:59:09Z"}}, {"model": "geodata.geonode", "pk": 221, "fields": {"country": 25, "node_type": 35, "parent": null, "level": null, "name_ru": "Циранг", "name_en": "Tsirang ", "name_native": "Tsirang ", "latitude": 27.0072232, "longitude": 90.1326289, "timezone": 322, "population": 22376, "iso_code": "BT-21", "wiki_data_id": "Q728922", "created_at": "2019-10-06T08:48:36Z", "updated_at": "2025-11-08T23:12:00Z"}}, {"model": "geodata.geonode", "pk": 222, "fields": {"country": 25, "node_type": 35, "parent": null, "level": null, "name_ru": "Вангду Пходранг", "name_en": "Wangdue Phodrang ", "name_native": "Wangdue Phodrang ", "latitude": 27.544634, "longitude": 89.955581, "timezone": 322, "population": 8954, "iso_code": "BT-24", "wiki_data_id": "Q728933", "created_at": "2019-10-06T08:48:36Z", "updated_at": "2025-11-08T23:12:03Z"}}, {"model": "geodata.geonode", "pk": 223, "fields": {"country": 25, "node_type": 35, "parent": null, "level": null, "name_ru": "Хаа", "name_en": "Haa ", "name_native": "Haa ", "latitude": 27.3596658, "longitude": 89.2357556, "timezone": 322, "population": null, "iso_code": "BT-13", "wiki_data_id": "Q754448", "created_at": "2019-10-06T08:48:36Z", "updated_at": "2025-10-09T22:59:20Z"}}, {"model": "geodata.geonode", "pk": 224, "fields": {"country": 25, "node_type": 35, "parent": null, "level": null, "name_ru": "Жемганг", "name_en": "Zhemgang ", "name_native": "Zhemgang ", "latitude": 27.0821148, "longitude": 90.8408984, "timezone": 322, "population": 2332, "iso_code": "BT-34", "wiki_data_id": "Q197564", "created_at": "2019-10-06T08:48:36Z", "updated_at": "2025-11-08T23:12:07Z"}}, {"model": "geodata.geonode", "pk": 225, "fields": {"country": 25, "node_type": 35, "parent": null, "level": null, "name_ru": "Лхунце", "name_en": "Lhuntse ", "name_native": "Lhuntse ", "latitude": 27.7287448, "longitude": 91.1363624, "timezone": 322, "population": null, "iso_code": "BT-44", "wiki_data_id": "Q598793", "created_at": "2019-10-06T08:48:36Z", "updated_at": "2025-10-09T22:59:27Z"}}, {"model": "geodata.geonode", "pk": 226, "fields": {"country": 25, "node_type": 35, "parent": null, "level": null, "name_ru": "Пунакха", "name_en": "Punakha ", "name_native": "Punakha ", "latitude": 27.5842857, "longitude": 89.8593094, "timezone": 322, "population": 6262, "iso_code": "BT-23", "wiki_data_id": "Q587062", "created_at": "2019-10-06T08:48:36Z", "updated_at": "2025-11-08T23:12:12Z"}}, {"model": "geodata.geonode", "pk": 227, "fields": {"country": 25, "node_type": 35, "parent": null, "level": null, "name_ru": "Трашиганг", "name_en": "Trashigang ", "name_native": "Trashigang ", "latitude": 27.2843778, "longitude": 91.5742509, "timezone": 322, "population": 3037, "iso_code": "BT-41", "wiki_data_id": "Q652773", "created_at": "2019-10-06T08:48:36Z", "updated_at": "2025-11-08T23:12:14Z"}}, {"model": "geodata.geonode", "pk": 228, "fields": {"country": 25, "node_type": 35, "parent": null, "level": null, "name_ru": "Паро", "name_en": "Paro ", "name_native": "Paro ", "latitude": 27.4285949, "longitude": 89.4166516, "timezone": 322, "population": null, "iso_code": "BT-11", "wiki_data_id": "Q652784", "created_at": "2019-10-06T08:48:36Z", "updated_at": "2025-10-09T22:59:37Z"}}, {"model": "geodata.geonode", "pk": 229, "fields": {"country": 25, "node_type": 35, "parent": null, "level": null, "name_ru": "Дагана", "name_en": "Dagana ", "name_native": "Dagana ", "latitude": 27.0746653, "longitude": 89.8786685, "timezone": 322, "population": null, "iso_code": "BT-22", "wiki_data_id": "Q735146", "created_at": "2019-10-06T08:48:36Z", "updated_at": "2025-10-09T22:59:41Z"}}, {"model": "geodata.geonode", "pk": 230, "fields": {"country": 25, "node_type": 35, "parent": null, "level": null, "name_ru": "Чуха", "name_en": "Chukha ", "name_native": "Chukha ", "latitude": 27.0575803, "longitude": 89.5638178, "timezone": 322, "population": null, "iso_code": "BT-12", "wiki_data_id": "Q652754", "created_at": "2019-10-06T08:48:36Z", "updated_at": "2025-10-09T22:59:44Z"}}, {"model": "geodata.geonode", "pk": 231, "fields": {"country": 25, "node_type": 35, "parent": null, "level": null, "name_ru": "Бумтанг", "name_en": "Bumthang ", "name_native": "Bumthang ", "latitude": 27.7079132, "longitude": 90.7697435, "timezone": 322, "population": null, "iso_code": "BT-33", "wiki_data_id": "Q463242", "created_at": "2019-10-06T08:48:36Z", "updated_at": "2025-10-09T22:59:47Z"}}, {"model": "geodata.geonode", "pk": 232, "fields": {"country": 25, "node_type": 35, "parent": null, "level": null, "name_ru": "Тхимпху", "name_en": "Thimphu ", "name_native": "Thimphu ", "latitude": 27.4712216, "longitude": 89.6339041, "timezone": 322, "population": 114551, "iso_code": "BT-15", "wiki_data_id": "Q254889", "created_at": "2019-10-06T08:48:36Z", "updated_at": "2025-11-08T23:12:24Z"}}, {"model": "geodata.geonode", "pk": 233, "fields": {"country": 25, "node_type": 35, "parent": null, "level": null, "name_ru": "Монгар", "name_en": "Mongar ", "name_native": "Mongar ", "latitude": 27.2763005, "longitude": 91.237536, "timezone": 322, "population": null, "iso_code": "BT-42", "wiki_data_id": "Q389734", "created_at": "2019-10-06T08:48:36Z", "updated_at": "2025-10-09T22:59:55Z"}}, {"model": "geodata.geonode", "pk": 234, "fields": {"country": 25, "node_type": 35, "parent": null, "level": null, "name_ru": "Самдруп Джонгхар", "name_en": "Samdrup Jongkhar ", "name_native": "Samdrup Jongkhar ", "latitude": 26.8035682, "longitude": 91.5039207, "timezone": 322, "population": 9325, "iso_code": "BT-45", "wiki_data_id": "Q728929", "created_at": "2019-10-06T08:48:36Z", "updated_at": "2025-11-08T23:12:29Z"}}, {"model": "geodata.geonode", "pk": 235, "fields": {"country": 25, "node_type": 35, "parent": null, "level": null, "name_ru": "Пемагачель", "name_en": "Pemagatshel ", "name_native": "Pemagatshel ", "latitude": 27.0030415, "longitude": 91.3677054, "timezone": 322, "population": null, "iso_code": "BT-43", "wiki_data_id": "Q167279", "created_at": "2019-10-06T08:48:36Z", "updated_at": "2025-10-09T23:00:03Z"}}, {"model": "geodata.geonode", "pk": 236, "fields": {"country": 25, "node_type": 35, "parent": null, "level": null, "name_ru": "Тронгса", "name_en": "Trongsa ", "name_native": "Trongsa ", "latitude": 27.5002269, "longitude": 90.5080634, "timezone": 322, "population": null, "iso_code": "BT-32", "wiki_data_id": "Q728938", "created_at": "2019-10-06T08:48:36Z", "updated_at": "2025-10-09T23:00:07Z"}}, {"model": "geodata.geonode", "pk": 237, "fields": {"country": 25, "node_type": 35, "parent": null, "level": null, "name_ru": "Самце", "name_en": "Samtse ", "name_native": "Samtse ", "latitude": 27.0352532, "longitude": 89.0147344, "timezone": 322, "population": 5396, "iso_code": "BT-14", "wiki_data_id": "Q728917", "created_at": "2019-10-06T08:48:36Z", "updated_at": "2025-11-08T23:12:35Z"}}, {"model": "geodata.geonode", "pk": 238, "fields": {"country": 25, "node_type": 35, "parent": null, "level": null, "name_ru": "Сарпанг", "name_en": "Sarpang ", "name_native": "Sarpang ", "latitude": 26.9863897, "longitude": 90.3800673, "timezone": 322, "population": 10416, "iso_code": "BT-31", "wiki_data_id": "Q728947", "created_at": "2019-10-06T08:48:36Z", "updated_at": "2025-11-08T23:12:38Z"}}, {"model": "geodata.geonode", "pk": 239, "fields": {"country": 132, "node_type": 75, "parent": null, "level": null, "name_ru": "Томбукту", "name_en": "Tombouctou", "name_native": "Tombouctou", "latitude": 16.7719091, "longitude": -3.0087272, "timezone": 7, "population": null, "iso_code": "ML-6", "wiki_data_id": "Q339462", "created_at": "2019-10-06T08:48:36Z", "updated_at": "2025-10-09T23:00:16Z"}}, {"model": "geodata.geonode", "pk": 240, "fields": {"country": 132, "node_type": 75, "parent": null, "level": null, "name_ru": "Сегу", "name_en": "Ségou", "name_native": "Ségou", "latitude": 14.0487607, "longitude": -6.0047091, "timezone": 7, "population": 130690, "iso_code": "ML-4", "wiki_data_id": "Q656845", "created_at": "2019-10-06T08:48:36Z", "updated_at": "2025-11-08T23:12:42Z"}}, {"model": "geodata.geonode", "pk": 241, "fields": {"country": 132, "node_type": 75, "parent": null, "level": null, "name_ru": "Куликоро", "name_en": "Koulikoro", "name_native": "Koulikoro", "latitude": 13.4820706, "longitude": -7.6096079, "timezone": 7, "population": 43174, "iso_code": "ML-2", "wiki_data_id": "Q287789", "created_at": "2019-10-06T08:48:36Z", "updated_at": "2025-11-08T23:12:43Z"}}, {"model": "geodata.geonode", "pk": 242, "fields": {"country": 132, "node_type": 75, "parent": null, "level": null, "name_ru": "Менака", "name_en": "Ménaka", "name_native": "Ménaka", "latitude": 15.9156421, "longitude": 2.396174, "timezone": 7, "population": 20702, "iso_code": "ML-9", "wiki_data_id": "Q3455550", "created_at": "2019-10-06T08:48:36Z", "updated_at": "2025-11-08T23:12:46Z"}}, {"model": "geodata.geonode", "pk": 243, "fields": {"country": 132, "node_type": 75, "parent": null, "level": null, "name_ru": "Кейс", "name_en": "Kayes", "name_native": "Kayes", "latitude": 13.8001844, "longitude": -10.2245548, "timezone": 7, "population": 127368, "iso_code": "ML-1", "wiki_data_id": "Q332113", "created_at": "2019-10-06T08:48:36Z", "updated_at": "2025-11-08T23:12:47Z"}}, {"model": "geodata.geonode", "pk": 244, "fields": {"country": 132, "node_type": 35, "parent": null, "level": null, "name_ru": "Бамако", "name_en": "Bamako", "name_native": "Bamako", "latitude": 12.649319, "longitude": -8.000337, "timezone": 7, "population": 4227569, "iso_code": "ML-BKO", "wiki_data_id": "Q3703", "created_at": "2019-10-06T08:48:36Z", "updated_at": "2025-11-08T23:12:49Z"}}, {"model": "geodata.geonode", "pk": 245, "fields": {"country": 132, "node_type": 75, "parent": null, "level": null, "name_ru": "Сикассо", "name_en": "Sikasso", "name_native": "Sikasso", "latitude": 11.529684, "longitude": -6.8663259, "timezone": 7, "population": 225753, "iso_code": "ML-3", "wiki_data_id": "Q461298", "created_at": "2019-10-06T08:48:36Z", "updated_at": "2025-11-08T23:12:50Z"}}, {"model": "geodata.geonode", "pk": 246, "fields": {"country": 132, "node_type": 75, "parent": null, "level": null, "name_ru": "Мопти", "name_en": "Mopti", "name_native": "Mopti", "latitude": 14.514489, "longitude": -3.6464581, "timezone": 7, "population": 114296, "iso_code": "ML-5", "wiki_data_id": "Q214155", "created_at": "2019-10-06T08:48:36Z", "updated_at": "2025-11-08T23:12:51Z"}}, {"model": "geodata.geonode", "pk": 247, "fields": {"country": 132, "node_type": 75, "parent": null, "level": null, "name_ru": "Тауденит", "name_en": "Taoudénit", "name_native": "Taoudénit", "latitude": 20.8582718, "longitude": -3.39819, "timezone": 7, "population": null, "iso_code": "ML-10", "wiki_data_id": "Q2424657", "created_at": "2019-10-06T08:48:36Z", "updated_at": "2025-10-09T23:00:42Z"}}, {"model": "geodata.geonode", "pk": 248, "fields": {"country": 132, "node_type": 75, "parent": null, "level": null, "name_ru": "Кидаль", "name_en": "Kidal", "name_native": "Gauche -", "latitude": 18.4408358, "longitude": 1.4075395, "timezone": 7, "population": 25617, "iso_code": "ML-8", "wiki_data_id": "Q338988", "created_at": "2019-10-06T08:48:36Z", "updated_at": "2025-11-08T23:12:55Z"}}, {"model": "geodata.geonode", "pk": 249, "fields": {"country": 132, "node_type": 75, "parent": null, "level": null, "name_ru": "Гао", "name_en": "Gao", "name_native": "Gao", "latitude": 17.00244, "longitude": -0.0991154, "timezone": 7, "population": 86633, "iso_code": "ML-7", "wiki_data_id": "Q332392", "created_at": "2019-10-06T08:48:36Z", "updated_at": "2025-11-08T23:12:56Z"}}, {"model": "geodata.geonode", "pk": 250, "fields": {"country": 182, "node_type": 73, "parent": null, "level": null, "name_ru": "Южный", "name_en": "Southern", "name_native": "Amajyepfo", "latitude": -2.6272137, "longitude": 29.6063049, "timezone": 30, "population": null, "iso_code": "RW-05", "wiki_data_id": "Q853162", "created_at": "2019-10-06T08:48:36Z", "updated_at": "2025-10-09T23:00:51Z"}}, {"model": "geodata.geonode", "pk": 251, "fields": {"country": 182, "node_type": 73, "parent": null, "level": null, "name_ru": "Западный", "name_en": "Western", "name_native": "Western", "latitude": -0.7727891, "longitude": 30.0884324, "timezone": 30, "population": null, "iso_code": "RW-04", "wiki_data_id": "Q737354", "created_at": "2019-10-06T08:48:36Z", "updated_at": "2025-10-19T03:56:39Z"}},